"LAT","LON","ship_type","SHIPNAME","DATETIME","DIFFERENCE","ID","ship_type_and_name","DISTANCE","TIME","TYPE"
59.86867,30.22017,"Cargo",". PRINCE OF WAVES",2016-12-14 11:01:04,120,2363,"Cargo . PRINCE OF WAVES",NA,NA,"arrival"
59.86983,30.21433,"Cargo",". PRINCE OF WAVES",2016-12-14 10:59:05,118,2364,"Cargo . PRINCE OF WAVES",350.956493889483,119,"departure"
59.91917,30.01335,"Cargo","AALDERDIJK",2016-12-20 08:53:04,119,25492,"Cargo AALDERDIJK",NA,NA,"arrival"
59.91565,30.0305,"Cargo","AALDERDIJK",2016-12-20 08:51:04,119,25493,"Cargo AALDERDIJK",1034.0645789009,120,"departure"
55.71969,20.8096,"Cargo","ADAMAS",2016-12-14 22:57:06,NA,34029,"Cargo ADAMAS",NA,NA,"arrival"
55.72534,20.85354,"Cargo","ADAMAS",2016-12-14 22:55:06,120,34030,"Cargo ADAMAS",2825.71735188401,120,"departure"
59.91283,30.04498,"Cargo","ADASTRA",2016-12-20 10:25:03,120,34290,"Cargo ADASTRA",NA,NA,"arrival"
59.90572,30.08003,"Cargo","ADASTRA",2016-12-20 10:17:04,479,34291,"Cargo ADASTRA",2110.27201085269,479,"departure"
55.7167,21.10772,"Cargo","ADELE",2016-12-15 05:25:07,119,38343,"Cargo ADELE",NA,NA,"arrival"
55.72617,21.08768,"Cargo","ADELE",2016-12-15 05:19:06,361,38344,"Cargo ADELE",1640.11914332526,361,"departure"
57.6565,11.75017,"Cargo","ADELINA D",2016-12-15 16:05:06,120,38390,"Cargo ADELINA D",NA,NA,"arrival"
57.6635,11.77983,"Cargo","ADELINA D",2016-12-15 16:03:05,121,38391,"Cargo ADELINA D",1930.49406858018,121,"departure"
55.73155,20.86157,"Cargo","AFRICAN CENDANA",2016-12-17 08:05:06,120,40895,"Cargo AFRICAN CENDANA",NA,NA,"arrival"
55.73175,20.84616,"Cargo","AFRICAN CENDANA",2016-12-17 08:03:06,120,40896,"Cargo AFRICAN CENDANA",966.164973735507,120,"departure"
55.73736,20.80092,"Cargo","AFRICAN GROUSE",2016-12-17 02:35:06,120,42066,"Cargo AFRICAN GROUSE",NA,NA,"arrival"
55.11497,19.95943,"Cargo","AFRICAN GROUSE",2016-12-16 19:15:03,26403,42067,"Cargo AFRICAN GROUSE",87325.4411972053,26403,"departure"
54.68866,20.21182,"Cargo","AFRICAN MAGNOLIA",2016-12-17 13:39:03,240,46200,"Cargo AFRICAN MAGNOLIA",NA,NA,"arrival"
54.68829,20.21381,"Cargo","AFRICAN MAGNOLIA",2016-12-17 13:31:02,481,46201,"Cargo AFRICAN MAGNOLIA",134.508117262268,481,"departure"
54.36469,18.66545,"Cargo","AGNETHE ARCTICA",2016-12-18 10:35:02,120,60162,"Cargo AGNETHE ARCTICA",NA,NA,"arrival"
54.36948,18.665,"Cargo","AGNETHE ARCTICA",2016-12-18 10:31:01,241,60163,"Cargo AGNETHE ARCTICA",534.018414156479,241,"departure"
55.71589,21.10918,"Cargo","AGOT",2016-12-20 06:39:06,120,63598,"Cargo AGOT",NA,NA,"arrival"
55.7237,21.09678,"Cargo","AGOT",2016-12-20 06:33:06,360,63599,"Cargo AGOT",1166.33356462175,360,"departure"
54.66873,19.80998,"Cargo","AKACIA",2016-12-16 11:41:02,121,68737,"Cargo AKACIA",NA,NA,"arrival"
54.46332,18.9992,"Cargo","AKACIA",2016-12-16 08:11:02,12600,68738,"Cargo AKACIA",57104.5007866035,12600,"departure"
54.65045,19.86151,"Cargo","AKERDIJK",2016-12-20 11:07:04,238,70873,"Cargo AKERDIJK",NA,NA,"arrival"
54.65897,19.83891,"Cargo","AKERDIJK",2016-12-20 11:01:03,361,70874,"Cargo AKERDIJK",1737.16911465824,361,"departure"
55.8785,20.8175,"Cargo","ALANA",2016-12-19 10:31:06,117,77021,"Cargo ALANA",NA,NA,"arrival"
55.86231,20.83628,"Cargo","ALANA",2016-12-19 10:29:05,118,77022,"Cargo ALANA",2150.34253114589,121,"departure"
54.5491,18.98915,"Cargo","ALANA EVITA",2016-12-17 19:45:01,120,82940,"Cargo ALANA EVITA",NA,NA,"arrival"
54.66463,19.82511,"Cargo","ALANA EVITA",2016-12-17 16:43:03,10918,82941,"Cargo ALANA EVITA",55410.7859551471,10918,"departure"
54.66798,18.93716,"Cargo","ALEXANDER B",2016-12-14 11:13:01,121,92058,"Cargo ALEXANDER B",NA,NA,"arrival"
54.68479,18.95132,"Cargo","ALEXANDER B",2016-12-14 11:11:01,120,92059,"Cargo ALEXANDER B",2081.42673970629,120,"departure"
59.91301,30.04308,"Cargo","ALLEGRA",2016-12-16 21:43:06,119,92967,"Cargo ALLEGRA",NA,NA,"arrival"
59.90941,30.06115,"Cargo","ALLEGRA",2016-12-16 21:41:07,118,92968,"Cargo ALLEGRA",1085.17852610502,119,"departure"
59.91543,30.03198,"Cargo","ALMENDRO",2016-12-20 08:57:04,119,94755,"Cargo ALMENDRO",NA,NA,"arrival"
59.91223,30.0483,"Cargo","ALMENDRO",2016-12-20 08:55:04,119,94756,"Cargo ALMENDRO",977.920028018804,120,"departure"
57.60223,11.78932,"Cargo","AMANDA",2016-12-19 06:11:05,121,120032,"Cargo AMANDA",NA,NA,"arrival"
57.99846,11.75718,"Cargo","AMANDA",2016-12-18 15:25:04,53161,120033,"Cargo AMANDA",44149.3043213357,53161,"departure"
55.70917,21.1208,"Cargo","AMATHUS",2016-12-15 09:39:07,121,121630,"Cargo AMATHUS",NA,NA,"arrival"
55.7091,21.12082,"Cargo","AMATHUS",2016-12-15 09:33:07,360,121631,"Cargo AMATHUS",7.892673790227,360,"departure"
54.6685,19.80217,"Cargo","AMBAL",2016-12-20 08:55:03,119,121671,"Cargo AMBAL",NA,NA,"arrival"
55.176,19.87267,"Cargo","AMBAL",2016-12-20 02:13:03,24120,121672,"Cargo AMBAL",56674.3781440912,24120,"departure"
54.63288,19.89483,"Cargo","AMBER SPIRIT",2016-12-19 15:33:03,120,122386,"Cargo AMBER SPIRIT",NA,NA,"arrival"
54.65795,19.84142,"Cargo","AMBER SPIRIT",2016-12-19 15:15:03,1080,122387,"Cargo AMBER SPIRIT",4429.92403631227,1080,"departure"
54.64067,20.02383,"Cargo","AMELAND",2016-12-18 13:43:03,124,123288,"Cargo AMELAND",NA,NA,"arrival"
54.633,19.89367,"Cargo","AMELAND",2016-12-18 13:17:02,1561,123289,"Cargo AMELAND",8429.16353247522,1561,"departure"
54.655,19.8496,"Cargo","AMERDIJK",2016-12-13 18:39:03,119,123297,"Cargo AMERDIJK",NA,NA,"arrival"
54.63272,19.89502,"Cargo","AMERDIJK",2016-12-13 18:37:03,120,123298,"Cargo AMERDIJK",3835.55578833081,120,"departure"
57.93881,11.68675,"Cargo","ANDALUCIA STAR",2016-12-14 22:57:05,121,124023,"Cargo ANDALUCIA STAR",NA,NA,"arrival"
57.9162,11.63816,"Cargo","ANDALUCIA STAR",2016-12-14 22:55:05,120,124024,"Cargo ANDALUCIA STAR",3818.92077926203,120,"departure"
55.7312,21.01329,"Cargo","ANETTA",2016-12-16 11:15:07,119,124629,"Cargo ANETTA",NA,NA,"arrival"
55.73262,20.98763,"Cargo","ANETTA",2016-12-16 11:13:06,121,124630,"Cargo ANETTA",1616.12330379409,121,"departure"
54.78513,18.9612,"Cargo","ANGLIA SEAWAYS",2016-12-20 02:05:02,120,129645,"Cargo ANGLIA SEAWAYS",NA,NA,"arrival"
54.79479,18.94468,"Cargo","ANGLIA SEAWAYS",2016-12-20 02:03:01,121,129646,"Cargo ANGLIA SEAWAYS",1510.18230707738,121,"departure"
55.70835,20.81501,"Cargo","ANGORA",2016-12-15 08:33:07,119,135866,"Cargo ANGORA",NA,NA,"arrival"
55.70655,20.80155,"Cargo","ANGORA",2016-12-15 08:31:06,121,135867,"Cargo ANGORA",867.658220689811,121,"departure"
57.61167,11.6025,"Cargo","ANINA",2016-12-15 00:51:05,NA,135868,"Cargo ANINA",NA,NA,"arrival"
57.6115,11.634,"Cargo","ANINA",2016-12-15 00:49:05,120,135869,"Cargo ANINA",1878.40756238583,120,"departure"
57.93012,11.67011,"Cargo","ANJELIERSGRACHT",2016-12-16 10:47:05,120,136351,"Cargo ANJELIERSGRACHT",NA,NA,"arrival"
57.94062,11.68803,"Cargo","ANJELIERSGRACHT",2016-12-16 10:45:05,120,136352,"Cargo ANJELIERSGRACHT",1577.25488444277,120,"departure"
57.63334,11.69167,"Cargo","ANNAMARIE",2016-12-15 06:41:05,120,146702,"Cargo ANNAMARIE",NA,NA,"arrival"
57.61783,11.6745,"Cargo","ANNAMARIE",2016-12-15 06:39:05,120,146703,"Cargo ANNAMARIE",2007.09903882123,120,"departure"
54.51431,18.99619,"Cargo","APL MERLION",2016-12-19 19:13:01,121,147196,"Cargo APL MERLION",NA,NA,"arrival"
54.7311,18.99907,"Cargo","APL MERLION",2016-12-19 18:01:02,4319,147197,"Cargo APL MERLION",24133.6662003012,4319,"departure"
55.61112,20.80787,"Cargo","ARA ROTTERDAM",2016-12-14 19:23:06,120,152263,"Cargo ARA ROTTERDAM",NA,NA,"arrival"
55.00592,19.83046,"Cargo","ARA ROTTERDAM",2016-12-14 17:41:02,6124,152264,"Cargo ARA ROTTERDAM",91506.4336812321,6124,"departure"
54.51316,18.98008,"Cargo","ARETHOUSA",2016-12-14 10:37:02,120,161817,"Cargo ARETHOUSA",NA,NA,"arrival"
54.52544,18.99381,"Cargo","ARETHOUSA",2016-12-14 10:35:02,120,161818,"Cargo ARETHOUSA",1629.6349024777,120,"departure"
54.55957,18.5508,"Cargo","ARION",2016-12-17 09:11:07,6600,168153,"Cargo ARION",NA,NA,"arrival"
54.52898,18.55068,"Cargo","ARION",2016-12-17 07:27:07,6240,168154,"Cargo ARION",3405.27203973875,6240,"departure"
57.61075,11.62227,"Cargo","ARK FORWARDER",2016-12-17 04:57:05,120,168817,"Cargo ARK FORWARDER",NA,NA,"arrival"
57.67988,11.81698,"Cargo","ARK FORWARDER",2016-12-14 02:29:07,268078,168818,"Cargo ARK FORWARDER",13920.1633069232,268078,"departure"
57.94259,11.69145,"Cargo","ASIAN BREEZE",2016-12-13 14:29:05,121,181637,"Cargo ASIAN BREEZE",NA,NA,"arrival"
57.95189,11.70251,"Cargo","ASIAN BREEZE",2016-12-13 14:27:05,120,181638,"Cargo ASIAN BREEZE",1224.2184372048,120,"departure"
57.91386,11.62603,"Cargo","ASIAN VISION",2016-12-16 20:33:05,119,181689,"Cargo ASIAN VISION",NA,NA,"arrival"
57.9181,11.60256,"Cargo","ASIAN VISION",2016-12-16 20:31:04,121,181690,"Cargo ASIAN VISION",1465.8211542629,121,"departure"
54.52776,18.78247,"Cargo","ASKOE",2016-12-14 19:57:07,115,187241,"Cargo ASKOE",NA,NA,"arrival"
54.54969,18.81589,"Cargo","ASKOE",2016-12-14 19:55:01,121,187242,"Cargo ASKOE",3258.53754484997,126,"departure"
57.655,11.7413,"Cargo","ASPEN",2016-12-16 04:02:20,45,187501,"Cargo ASPEN",NA,NA,"arrival"
57.64979,11.71182,"Cargo","ASPEN",2016-12-16 03:59:06,194,187502,"Cargo ASPEN",1849.19204823902,194,"departure"
57.6118,11.62322,"Cargo","ASTRORUNNER",2016-12-20 04:39:13,112,187915,"Cargo ASTRORUNNER",NA,NA,"arrival"
57.60032,11.65497,"Cargo","ASTRORUNNER",2016-12-13 18:09:05,556208,187916,"Cargo ASTRORUNNER",2284.40804530965,556208,"departure"
57.64611,11.70513,"Cargo","ATLANTIC CARTIER",2016-12-19 04:27:05,120,195609,"Cargo ATLANTIC CARTIER",NA,NA,"arrival"
57.63336,11.69312,"Cargo","ATLANTIC CARTIER",2016-12-19 04:25:06,119,195610,"Cargo ATLANTIC CARTIER",1589.51152682797,119,"departure"
59.90889,30.06385,"Cargo","ATLANTIC NAVIGATORII",2016-12-17 14:37:04,119,197628,"Cargo ATLANTIC NAVIGATORII",NA,NA,"arrival"
59.91239,30.04606,"Cargo","ATLANTIC NAVIGATORII",2016-12-17 14:35:04,119,197629,"Cargo ATLANTIC NAVIGATORII",1066.57129895041,120,"departure"
59.90658,30.22843,"Cargo","ATLANTIC RUNNER",2016-12-14 15:07:04,120,201780,"Cargo ATLANTIC RUNNER",NA,NA,"arrival"
59.90295,30.22353,"Cargo","ATLANTIC RUNNER",2016-12-14 15:05:05,118,201781,"Cargo ATLANTIC RUNNER",487.955308139916,119,"departure"
54.62413,18.92408,"Cargo","ATROTOS HERACLES",2016-12-17 07:37:02,120,207190,"Cargo ATROTOS HERACLES",NA,NA,"arrival"
54.61001,18.91085,"Cargo","ATROTOS HERACLES",2016-12-17 07:35:01,121,207191,"Cargo ATROTOS HERACLES",1788.26495055165,121,"departure"
59.91502,30.0328,"Cargo","AUTO BAY",2016-12-14 17:37:05,118,214095,"Cargo AUTO BAY",NA,NA,"arrival"
59.90988,30.05801,"Cargo","AUTO BAY",2016-12-14 17:35:04,120,214096,"Cargo AUTO BAY",1518.79684430855,121,"departure"
59.90859,30.06578,"Cargo","AUTUMN WAVE",2016-12-19 09:33:04,120,214326,"Cargo AUTUMN WAVE",NA,NA,"arrival"
59.9051,30.08308,"Cargo","AUTUMN WAVE",2016-12-19 09:31:05,118,214327,"Cargo AUTUMN WAVE",1040.84858312292,119,"departure"
59.9099,30.05861,"Cargo","AVELONA STAR",2016-12-17 02:51:04,119,220711,"Cargo AVELONA STAR",NA,NA,"arrival"
59.91263,30.04486,"Cargo","AVELONA STAR",2016-12-17 02:49:04,119,220712,"Cargo AVELONA STAR",825.359724235261,120,"departure"
55.67568,21.14048,"Cargo","BALDER",2016-12-19 16:33:15,111,221377,"Cargo BALDER",NA,NA,"arrival"
55.66048,21.14977,"Cargo","BALDER",2016-12-19 16:25:06,489,221378,"Cargo BALDER",1789.7586280234,489,"departure"
59.90739,30.07238,"Cargo","BALTIC HEATHER",2016-12-20 02:19:04,120,227177,"Cargo BALTIC HEATHER",NA,NA,"arrival"
59.9126,30.04639,"Cargo","BALTIC HEATHER",2016-12-20 02:17:04,119,227178,"Cargo BALTIC HEATHER",1562.1813362464,120,"departure"
59.90835,30.06593,"Cargo","BALTIC PATRIOT",2016-12-18 05:49:03,120,228735,"Cargo BALTIC PATRIOT",NA,NA,"arrival"
59.91237,30.04677,"Cargo","BALTIC PATRIOT",2016-12-18 05:47:04,119,228736,"Cargo BALTIC PATRIOT",1159.19162748414,119,"departure"
59.9075,30.07083,"Cargo","BALTIC PERFORMER",2016-12-13 15:33:04,120,233366,"Cargo BALTIC PERFORMER",NA,NA,"arrival"
59.91117,30.05283,"Cargo","BALTIC PERFORMER",2016-12-13 15:31:05,118,233367,"Cargo BALTIC PERFORMER",1084.51304422309,119,"departure"
59.91264,30.04653,"Cargo","BALTIC PIONEER",2016-12-20 05:05:04,119,233521,"Cargo BALTIC PIONEER",NA,NA,"arrival"
59.91522,30.03235,"Cargo","BALTIC PIONEER",2016-12-20 05:03:05,118,233522,"Cargo BALTIC PIONEER",841.81614635484,119,"departure"
59.90331,30.22391,"Cargo","BALTIC PRIME",2016-12-18 15:53:04,119,234775,"Cargo BALTIC PRIME",NA,NA,"arrival"
59.90751,30.22953,"Cargo","BALTIC PRIME",2016-12-18 15:51:04,120,234776,"Cargo BALTIC PRIME",563.031271099465,120,"departure"
57.67877,11.80791,"Cargo","BALTICA",2016-12-19 14:25:07,118,239381,"Cargo BALTICA",NA,NA,"arrival"
54.56953,18.84389,"Cargo","BALTICA HAV",2016-12-19 10:11:02,120,242215,"Cargo BALTICA HAV",NA,NA,"departure"
54.57626,18.85364,"Cargo","BALTICA HAV",2016-12-19 10:09:01,121,242216,"Cargo BALTICA HAV",978.315204551399,121,"arrival"
54.98353,19.80258,"Cargo","BALTIYSK",2016-12-17 11:53:03,119,249114,"Cargo BALTIYSK",NA,NA,"departure"
54.67425,19.80733,"Cargo","BALTIYSK",2016-12-17 10:03:03,6600,249115,"Cargo BALTIYSK",34430.2393251217,6600,"arrival"
54.50566,18.77121,"Cargo","BALTIYSKIY-202",2016-12-20 09:31:07,114,249885,"Cargo BALTIYSKIY-202",NA,NA,"departure"
54.46891,18.71478,"Cargo","BALTIYSKIY-202",2016-12-20 09:11:07,1195,249886,"Cargo BALTIYSKIY-202",5481.89688442736,1200,"arrival"
59.9205,30.006,"Cargo","BARMBEK",2016-12-18 09:23:04,NA,253986,"Cargo BARMBEK",NA,NA,"departure"
59.91767,30.02017,"Cargo","BARMBEK",2016-12-18 09:21:04,119,253987,"Cargo BARMBEK",851.08024583312,120,"arrival"
57.93184,11.67667,"Cargo","BBS SKY",2016-12-16 22:17:05,120,258275,"Cargo BBS SKY",NA,NA,"departure"
57.94067,11.69033,"Cargo","BBS SKY",2016-12-16 22:15:05,120,258276,"Cargo BBS SKY",1271.94063767476,120,"arrival"
55.13744,19.81967,"Cargo","BEATA",2016-12-16 18:03:03,119,258348,"Cargo BEATA",NA,NA,"departure"
54.6795,19.80137,"Cargo","BEATA",2016-12-16 15:31:02,9121,258349,"Cargo BEATA",50991.0976068189,9121,"arrival"
57.65701,11.75727,"Cargo","BEGONIA SEAWAYS",2016-12-18 13:17:05,120,263011,"Cargo BEGONIA SEAWAYS",NA,NA,"departure"
57.65199,11.72603,"Cargo","BEGONIA SEAWAYS",2016-12-18 13:15:05,120,263012,"Cargo BEGONIA SEAWAYS",1942.71678639265,120,"arrival"
55.72531,21.0928,"Cargo","BEKAU",2016-12-16 18:27:07,119,263403,"Cargo BEKAU",NA,NA,"departure"
55.71568,21.1116,"Cargo","BEKAU",2016-12-16 18:19:06,481,263404,"Cargo BEKAU",1593.30112791287,481,"arrival"
59.92099,30.00478,"Cargo","BELBEK",2016-12-15 10:09:05,NA,263458,"Cargo BELBEK",NA,NA,"departure"
59.91674,30.02597,"Cargo","BELBEK",2016-12-15 10:07:04,119,263459,"Cargo BELBEK",1273.46590947794,121,"arrival"
54.38212,18.65497,"Cargo","BELIZIA",2016-12-13 13:33:02,120,265020,"Cargo BELIZIA",NA,NA,"departure"
54.382,18.655,"Cargo","BELIZIA",2016-12-13 13:31:02,120,265021,"Cargo BELIZIA",13.4991796273842,120,"arrival"
59.90683,30.07483,"Cargo","BF CARTAGENA",2016-12-15 17:39:04,119,270289,"Cargo BF CARTAGENA",NA,NA,"departure"
59.90217,30.09717,"Cargo","BF CARTAGENA",2016-12-15 17:37:05,118,270290,"Cargo BF CARTAGENA",1350.62060833795,119,"arrival"
59.8981,30.11638,"Cargo","BF FORTALEZA",2016-12-19 14:49:04,119,272133,"Cargo BF FORTALEZA",NA,NA,"departure"
59.90128,30.1009,"Cargo","BF FORTALEZA",2016-12-19 14:47:04,119,272134,"Cargo BF FORTALEZA",933.914734458693,120,"arrival"
55.731,20.8115,"Cargo","BF VICTORIA",2016-12-16 20:51:06,120,272147,"Cargo BF VICTORIA",NA,NA,"departure"
55.73117,20.83533,"Cargo","BF VICTORIA",2016-12-16 20:49:06,120,272148,"Cargo BF VICTORIA",1493.8207647946,120,"arrival"
57.67889,11.81503,"Cargo","BIRTHE BRES",2016-12-14 19:57:08,117,280060,"Cargo BIRTHE BRES",NA,NA,"departure"
57.66332,11.77958,"Cargo","BIRTHE BRES",2016-12-14 19:55:05,120,280061,"Cargo BIRTHE BRES",2730.90748320524,123,"arrival"
55.71579,21.10976,"Cargo","BIRYUZA",2016-12-17 23:41:06,121,281802,"Cargo BIRYUZA",NA,NA,"departure"
55.72635,21.08929,"Cargo","BIRYUZA",2016-12-17 23:31:06,600,281803,"Cargo BIRYUZA",1740.41571409746,600,"arrival"
55.73779,20.82914,"Cargo","BLUE CHIP",2016-12-15 16:41:07,119,296519,"Cargo BLUE CHIP",NA,NA,"departure"
55.73701,20.85337,"Cargo","BLUE CHIP",2016-12-15 16:39:06,121,296520,"Cargo BLUE CHIP",1521.00822864841,121,"arrival"
59.90188,30.09837,"Cargo","BLUEBILL",2016-12-18 16:59:05,118,299102,"Cargo BLUEBILL",NA,NA,"departure"
59.90444,30.08574,"Cargo","BLUEBILL",2016-12-18 16:57:04,120,299103,"Cargo BLUEBILL",760.455885521036,121,"arrival"
54.78593,18.98923,"Cargo","BOGDAN",2016-12-14 10:09:01,121,323687,"Cargo BOGDAN",NA,NA,"departure"
54.38472,18.66143,"Cargo","BOGDAN",2016-12-14 02:51:02,26279,323688,"Cargo BOGDAN",49415.317785921,26279,"arrival"
55.7036,21.1275,"Cargo","BOMAR MOON",2016-12-15 05:17:06,120,327838,"Cargo BOMAR MOON",NA,NA,"departure"
55.70339,21.12785,"Cargo","BOMAR MOON",2016-12-15 05:15:06,120,327839,"Cargo BOMAR MOON",32.0697407123641,120,"arrival"
59.90339,30.09083,"Cargo","BOMAR VALOUR",2016-12-18 14:37:04,120,330151,"Cargo BOMAR VALOUR",NA,NA,"departure"
59.90634,30.07622,"Cargo","BOMAR VALOUR",2016-12-18 14:35:04,119,330152,"Cargo BOMAR VALOUR",879.161527039375,120,"arrival"
59.91208,30.04815,"Cargo","BOMAR VANQUISH",2016-12-13 18:41:04,120,330165,"Cargo BOMAR VANQUISH",NA,NA,"departure"
59.90863,30.06465,"Cargo","BOMAR VANQUISH",2016-12-13 18:39:05,118,330166,"Cargo BOMAR VANQUISH",997.749500353372,119,"arrival"
59.90926,30.06262,"Cargo","BOREAS",2016-12-20 10:03:04,119,332371,"Cargo BOREAS",NA,NA,"departure"
59.9026,30.09501,"Cargo","BOREAS",2016-12-20 09:55:04,479,332372,"Cargo BOREAS",1954.05100767905,480,"arrival"
55.73097,20.88806,"Cargo","BOTNIA SEAWAYS",2016-12-15 10:23:07,119,339015,"Cargo BOTNIA SEAWAYS",NA,NA,"departure"
55.73257,20.92661,"Cargo","BOTNIA SEAWAYS",2016-12-15 10:21:07,120,339016,"Cargo BOTNIA SEAWAYS",2422.88613310341,120,"arrival"
55.72371,21.09603,"Cargo","BRIGGA",2016-12-15 22:27:07,239,344466,"Cargo BRIGGA",NA,NA,"departure"
55.72816,21.07761,"Cargo","BRIGGA",2016-12-15 22:25:06,121,344467,"Cargo BRIGGA",1256.51571555802,121,"arrival"
59.90792,30.06747,"Cargo","BRIN NAVOLOK",2016-12-19 16:31:04,128,345017,"Cargo BRIN NAVOLOK",NA,NA,"departure"
59.91186,30.04835,"Cargo","BRIN NAVOLOK",2016-12-19 16:25:04,359,345018,"Cargo BRIN NAVOLOK",1153.73169564158,360,"arrival"
54.50609,18.98727,"Cargo","CALISTO",2016-12-19 02:37:02,119,373055,"Cargo CALISTO",NA,NA,"departure"
59.921,30.0035,"Cargo","CALISTO",2016-12-17 09:49:03,146879,373056,"Cargo CALISTO",894802.444721743,146879,"arrival"
57.94847,12.08942,"Cargo","CAROLINA",2016-12-20 08:37:07,118,375415,"Cargo CAROLINA",NA,NA,"departure"
57.89535,12.03937,"Cargo","CAROLINA",2016-12-20 08:35:16,109,375416,"Cargo CAROLINA",6612.27038091129,111,"arrival"
54.52669,18.56057,"Cargo","CATHARINA SCHULTE",2016-12-16 12:57:07,121,379584,"Cargo CATHARINA SCHULTE",NA,NA,"departure"
54.53396,18.55884,"Cargo","CATHARINA SCHULTE",2016-12-16 12:55:07,120,379585,"Cargo CATHARINA SCHULTE",816.971733484648,120,"arrival"
55.64794,21.16266,"Cargo","CEMISLE",2016-12-14 01:27:06,120,386648,"Cargo CEMISLE",NA,NA,"departure"
55.65001,21.15734,"Cargo","CEMISLE",2016-12-14 01:05:06,1320,386649,"Cargo CEMISLE",405.913833537145,1320,"arrival"
55.82241,20.86578,"Cargo","CEMSOL",2016-12-18 15:35:06,121,386661,"Cargo CEMSOL",NA,NA,"departure"
55.81088,20.8829,"Cargo","CEMSOL",2016-12-18 15:33:07,119,386662,"Cargo CEMSOL",1671.50326853927,119,"arrival"
59.90677,30.07293,"Cargo","CHARLOTTA B",2016-12-20 04:39:12,112,395792,"Cargo CHARLOTTA B",NA,NA,"departure"
59.91285,30.04415,"Cargo","CHARLOTTA B",2016-12-20 04:35:03,248,395793,"Cargo CHARLOTTA B",1743.02528565388,249,"arrival"
59.91104,30.05359,"Cargo","CHAROITE",2016-12-20 08:57:04,119,395803,"Cargo CHAROITE",NA,NA,"departure"
59.90694,30.07371,"Cargo","CHAROITE",2016-12-20 08:55:04,119,395804,"Cargo CHAROITE",1212.16129134736,120,"arrival"
59.9109,30.05385,"Cargo","CHRISTOPHER",2016-12-15 10:21:05,119,402806,"Cargo CHRISTOPHER",NA,NA,"departure"
59.90701,30.07304,"Cargo","CHRISTOPHER",2016-12-15 10:19:04,120,402807,"Cargo CHRISTOPHER",1155.27623775145,121,"arrival"
57.62616,11.68129,"Cargo","CITY OF ROME",2016-12-15 04:29:06,120,403961,"Cargo CITY OF ROME",NA,NA,"departure"
57.61467,11.66392,"Cargo","CITY OF ROME",2016-12-15 04:27:05,121,403962,"Cargo CITY OF ROME",1645.6804507862,121,"arrival"
59.91029,30.05716,"Cargo","CITY OF ROTTERDAM",2016-12-13 21:37:05,119,403973,"Cargo CITY OF ROTTERDAM",NA,NA,"departure"
59.90517,30.08229,"Cargo","CITY OF ROTTERDAM",2016-12-13 21:35:05,119,403974,"Cargo CITY OF ROTTERDAM",1514.00724518494,120,"arrival"
59.91145,30.05126,"Cargo","CONMAR AVENUE",2016-12-15 01:15:05,119,409503,"Cargo CONMAR AVENUE",NA,NA,"departure"
59.9152,30.03259,"Cargo","CONMAR AVENUE",2016-12-15 01:13:04,120,409504,"Cargo CONMAR AVENUE",1122.40622083922,121,"arrival"
55.67983,21.1375,"Cargo","CONTAINERSHIPS 6",2016-12-13 18:17:07,120,409754,"Cargo CONTAINERSHIPS 6",NA,NA,"departure"
55.69683,21.12467,"Cargo","CONTAINERSHIPS 6",2016-12-13 18:11:07,360,409755,"Cargo CONTAINERSHIPS 6",2056.56449764007,360,"arrival"
55.75791,20.94193,"Cargo","CONTAINERSHIPS VII",2016-12-18 05:51:06,120,410112,"Cargo CONTAINERSHIPS VII",NA,NA,"departure"
55.77592,20.91944,"Cargo","CONTAINERSHIPS VII",2016-12-18 05:49:05,121,410113,"Cargo CONTAINERSHIPS VII",2450.12414651174,121,"arrival"
59.91543,30.03143,"Cargo","DANUBE HIGHWAY",2016-12-15 17:23:05,118,431808,"Cargo DANUBE HIGHWAY",NA,NA,"departure"
59.91272,30.04453,"Cargo","DANUBE HIGHWAY",2016-12-15 17:21:05,119,431809,"Cargo DANUBE HIGHWAY",790.836038419792,120,"arrival"
57.61215,11.66631,"Cargo","DANUBIA",2016-12-20 09:31:05,119,432264,"Cargo DANUBIA",NA,NA,"departure"
57.65377,11.72674,"Cargo","DANUBIA",2016-12-20 09:11:05,1200,432265,"Cargo DANUBIA",5868.12005064412,1200,"arrival"
54.67177,19.80285,"Cargo","DELPHIS BOTHNIA",2016-12-18 06:51:02,121,446743,"Cargo DELPHIS BOTHNIA",NA,NA,"departure"
59.91929,30.01159,"Cargo","DELPHIS BOTHNIA",2016-12-16 09:29:04,163318,446744,"Cargo DELPHIS BOTHNIA",845794.268978389,163318,"arrival"
55.72994,21.00316,"Cargo","DIJKSGRACHT",2016-12-18 13:13:06,120,448929,"Cargo DIJKSGRACHT",NA,NA,"departure"
55.72404,21.02729,"Cargo","DIJKSGRACHT",2016-12-18 13:11:05,121,448930,"Cargo DIJKSGRACHT",1649.09638604876,121,"arrival"
54.68526,20.17245,"Cargo","DINTELBORG",2016-12-15 21:47:03,120,452184,"Cargo DINTELBORG",NA,NA,"departure"
54.68567,20.22827,"Cargo","DINTELBORG",2016-12-15 21:31:03,960,452185,"Cargo DINTELBORG",3592.29915890973,960,"arrival"
54.73329,18.95905,"Cargo","DONGEBORG",2016-12-14 11:07:01,120,473195,"Cargo DONGEBORG",NA,NA,"departure"
54.74545,18.9621,"Cargo","DONGEBORG",2016-12-14 11:05:01,120,473196,"Cargo DONGEBORG",1367.76214742204,120,"arrival"
54.69305,18.91599,"Cargo","DORNUM",2016-12-15 17:41:01,121,473236,"Cargo DORNUM",NA,NA,"departure"
54.6854,18.9296,"Cargo","DORNUM",2016-12-15 17:39:01,120,473237,"Cargo DORNUM",1221.5149969885,120,"arrival"
57.60002,11.61614,"Cargo","DT BROSON",2016-12-15 08:33:06,720,475669,"Cargo DT BROSON",NA,NA,"departure"
57.62032,11.80844,"Cargo","DT BROSON",2016-12-15 08:05:09,1677,475670,"Cargo DT BROSON",11687.634939924,1677,"arrival"
59.9155,30.03153,"Cargo","DURBAN STAR",2016-12-16 22:43:05,119,481962,"Cargo DURBAN STAR",NA,NA,"departure"
59.91245,30.04652,"Cargo","DURBAN STAR",2016-12-16 22:41:04,120,481963,"Cargo DURBAN STAR",902.786298572201,121,"arrival"
54.53782,18.73003,"Cargo","E.R. TALLINN",2016-12-18 03:49:07,115,486173,"Cargo E.R. TALLINN",NA,NA,"departure"
54.53731,18.75813,"Cargo","E.R. TALLINN",2016-12-18 03:47:06,116,486174,"Cargo E.R. TALLINN",1815.70171153739,121,"arrival"
59.9059,30.07702,"Cargo","E.R. VISBY",2016-12-20 04:09:04,126,486392,"Cargo E.R. VISBY",NA,NA,"departure"
59.90855,30.06367,"Cargo","E.R. VISBY",2016-12-20 04:07:04,119,486393,"Cargo E.R. VISBY",801.409713364226,120,"arrival"
59.9085,30.066,"Cargo","EIRA",2016-12-19 14:49:04,119,499236,"Cargo EIRA",NA,NA,"departure"
59.91333,30.043,"Cargo","EIRA",2016-12-19 14:47:04,119,499237,"Cargo EIRA",1391.67994842163,120,"arrival"
57.98357,12.12594,"Cargo","EKEN",2016-12-15 05:57:08,117,504571,"Cargo EKEN",NA,NA,"departure"
57.99507,12.12761,"Cargo","EKEN",2016-12-15 05:55:08,117,504572,"Cargo EKEN",1283.96129716638,120,"arrival"
54.68555,20.23076,"Cargo","EMILIA",2016-12-16 03:11:03,120,514844,"Cargo EMILIA",NA,NA,"departure"
54.68553,20.174,"Cargo","EMILIA",2016-12-16 02:57:03,840,514845,"Cargo EMILIA",3652.49200267757,840,"arrival"
55.73155,20.80289,"Cargo","EMOTION",2016-12-15 19:05:06,121,520137,"Cargo EMOTION",NA,NA,"departure"
54.79411,18.97551,"Cargo","EMOTION",2016-12-15 12:07:02,25084,520138,"Cargo EMOTION",155958.098892865,25084,"arrival"
55.65434,21.158,"Cargo","EMSRUNNER",2016-12-18 06:25:07,120,522350,"Cargo EMSRUNNER",NA,NA,"departure"
55.65417,21.15783,"Cargo","EMSRUNNER",2016-12-18 06:23:06,121,522351,"Cargo EMSRUNNER",21.7284183468692,121,"arrival"
54.53548,18.55798,"Cargo","ENFORCER",2016-12-16 12:57:07,121,524616,"Cargo ENFORCER",NA,NA,"departure"
54.53519,18.59532,"Cargo","ENFORCER",2016-12-16 12:55:07,120,524617,"Cargo ENFORCER",2411.91903946403,120,"arrival"
55.83699,20.81754,"Cargo","ESL AFRICA",2016-12-19 19:41:06,127,532634,"Cargo ESL AFRICA",NA,NA,"departure"
55.84693,20.80334,"Cargo","ESL AFRICA",2016-12-19 19:39:05,121,532635,"Cargo ESL AFRICA",1418.49173702036,121,"arrival"
59.91299,30.04387,"Cargo","EYSTNES",2016-12-19 14:57:04,120,533667,"Cargo EYSTNES",NA,NA,"departure"
59.91605,30.02825,"Cargo","EYSTNES",2016-12-19 14:55:04,119,533668,"Cargo EYSTNES",935.846782969346,120,"arrival"
54.63331,19.89368,"Cargo","FALKBRIS",2016-12-18 13:03:02,121,543113,"Cargo FALKBRIS",NA,NA,"departure"
54.6695,19.82589,"Cargo","FALKBRIS",2016-12-16 15:31:02,163920,543114,"Cargo FALKBRIS",5940.65982571314,163920,"arrival"
59.91337,30.22852,"Cargo","FAST HERMAN",2016-12-13 14:07:05,118,543638,"Cargo FAST HERMAN",NA,NA,"departure"
59.89684,30.21549,"Cargo","FAST HERMAN",2016-12-13 14:05:04,120,543639,"Cargo FAST HERMAN",1978.63897990516,121,"arrival"
57.65933,11.76567,"Cargo","FAUST",2016-12-15 21:13:05,121,544446,"Cargo FAUST",NA,NA,"departure"
57.66729,11.78699,"Cargo","FAUST",2016-12-15 21:11:05,120,544447,"Cargo FAUST",1548.14641551934,120,"arrival"
59.91267,30.04512,"Cargo","FEDERAL CEDAR",2016-12-19 14:27:04,119,545753,"Cargo FEDERAL CEDAR",NA,NA,"departure"
59.91711,30.0232,"Cargo","FEDERAL CEDAR",2016-12-19 14:25:04,119,545754,"Cargo FEDERAL CEDAR",1319.28317690064,120,"arrival"
57.60081,11.69005,"Cargo","FEDERAL SATSUKI",2016-12-16 13:21:06,119,545900,"Cargo FEDERAL SATSUKI",NA,NA,"departure"
57.60059,11.69063,"Cargo","FEDERAL SATSUKI",2016-12-16 13:19:06,120,545901,"Cargo FEDERAL SATSUKI",42.3863055968595,120,"arrival"
54.68565,20.22589,"Cargo","FEHN LIGHT",2016-12-16 18:11:02,120,546030,"Cargo FEHN LIGHT",NA,NA,"departure"
54.68486,20.17102,"Cargo","FEHN LIGHT",2016-12-16 17:53:03,1079,546031,"Cargo FEHN LIGHT",3531.99011185848,1079,"arrival"
59.90938,30.0614,"Cargo","FEHN POLLUX",2016-12-20 05:35:04,119,546228,"Cargo FEHN POLLUX",NA,NA,"departure"
59.91251,30.04595,"Cargo","FEHN POLLUX",2016-12-20 05:33:04,119,546229,"Cargo FEHN POLLUX",929.995044092693,120,"arrival"
57.65243,11.72356,"Cargo","FICARIA SEAWAYS",2016-12-15 17:05:05,120,547625,"Cargo FICARIA SEAWAYS",NA,NA,"departure"
57.65739,11.75459,"Cargo","FICARIA SEAWAYS",2016-12-15 17:01:06,239,547626,"Cargo FICARIA SEAWAYS",1928.79886478893,239,"arrival"
59.91375,30.03851,"Cargo","FINNHAWK",2016-12-16 06:31:05,119,549075,"Cargo FINNHAWK",NA,NA,"departure"
59.91904,30.01286,"Cargo","FINNHAWK",2016-12-16 06:29:04,120,549076,"Cargo FINNHAWK",1547.68857829503,121,"arrival"
54.79053,18.89155,"Cargo","FINNKRAFT",2016-12-15 16:49:02,120,549795,"Cargo FINNKRAFT",NA,NA,"departure"
54.6725,18.99983,"Cargo","FINNKRAFT",2016-12-13 22:31:02,152280,549796,"Cargo FINNKRAFT",14868.5700969393,152280,"arrival"
59.92145,30.002,"Cargo","FINNMILL",2016-12-15 09:57:04,120,550127,"Cargo FINNMILL",NA,NA,"departure"
59.91888,30.01486,"Cargo","FINNMILL",2016-12-15 09:55:04,120,550128,"Cargo FINNMILL",772.444371032367,120,"arrival"
54.66213,18.93311,"Cargo","FINNPULP",2016-12-19 06:25:02,120,551680,"Cargo FINNPULP",NA,NA,"departure"
54.67507,18.94194,"Cargo","FINNPULP",2016-12-19 06:23:02,120,551681,"Cargo FINNPULP",1548.5787217859,120,"arrival"
59.88737,30.17005,"Cargo","FINNTIDE",2016-12-20 03:17:04,119,551899,"Cargo FINNTIDE",NA,NA,"departure"
59.89004,30.15668,"Cargo","FINNTIDE",2016-12-20 03:15:04,119,551900,"Cargo FINNTIDE",803.655567471999,120,"arrival"
59.91085,30.05435,"Cargo","FINNWAVE",2016-12-15 03:05:04,119,552354,"Cargo FINNWAVE",NA,NA,"departure"
59.91479,30.03485,"Cargo","FINNWAVE",2016-12-15 03:03:04,119,552355,"Cargo FINNWAVE",1173.28632727524,120,"arrival"
59.90627,30.27033,"Cargo","FITTER",2016-12-15 22:15:04,119,554344,"Cargo FITTER",NA,NA,"departure"
59.9109,30.26538,"Cargo","FITTER",2016-12-15 22:13:05,118,554345,"Cargo FITTER",584.786747457552,119,"arrival"
54.53627,18.5201,"Cargo","FJORDVIK",2016-12-15 15:11:08,120,564783,"Cargo FJORDVIK",NA,NA,"departure"
54.53645,18.51995,"Cargo","FJORDVIK",2016-12-15 15:09:07,121,564784,"Cargo FJORDVIK",22.2566224058551,121,"arrival"
54.64883,19.86498,"Cargo","FOREST",2016-12-15 19:07:03,119,570850,"Cargo FOREST",NA,NA,"departure"
54.6327,19.90475,"Cargo","FOREST",2016-12-15 19:05:02,121,570851,"Cargo FOREST",3128.58157324127,121,"arrival"
55.72543,21.09268,"Cargo","FORSETI",2016-12-17 19:35:06,120,570919,"Cargo FORSETI",NA,NA,"departure"
55.71317,21.11337,"Cargo","FORSETI",2016-12-17 19:27:06,480,570920,"Cargo FORSETI",1882.95821988067,480,"arrival"
54.54131,18.52987,"Cargo","FRANCISCA",2016-12-18 16:47:07,120,578060,"Cargo FRANCISCA",NA,NA,"departure"
54.54143,18.52991,"Cargo","FRANCISCA",2016-12-18 16:45:07,120,578061,"Cargo FRANCISCA",13.6057983387216,120,"arrival"
55.7121,20.80083,"Cargo","FREDERIK",2016-12-17 05:11:06,119,586096,"Cargo FREDERIK",NA,NA,"departure"
55.19833,19.88672,"Cargo","FREDERIK",2016-12-17 00:37:03,16443,586097,"Cargo FREDERIK",81242.2906617495,16443,"arrival"
57.64865,11.70891,"Cargo","FREESIA SEAWAYS",2016-12-16 21:43:08,119,586938,"Cargo FREESIA SEAWAYS",NA,NA,"departure"
57.62766,11.68233,"Cargo","FREESIA SEAWAYS",2016-12-16 21:41:08,120,586939,"Cargo FREESIA SEAWAYS",2822.77111731458,120,"arrival"
57.66083,11.77167,"Cargo","FREYA",2016-12-15 16:05:06,118,590443,"Cargo FREYA",NA,NA,"departure"
57.67333,11.798,"Cargo","FREYA",2016-12-15 16:03:05,118,590444,"Cargo FREYA",2096.12167554962,121,"arrival"
54.7537,18.73457,"Cargo","FRI OCEAN",2016-12-13 18:53:07,115,591801,"Cargo FRI OCEAN",NA,NA,"departure"
54.74643,18.75352,"Cargo","FRI OCEAN",2016-12-13 18:51:07,115,591802,"Cargo FRI OCEAN",1461.92766369193,120,"arrival"
59.90305,30.09235,"Cargo","FRI PORSGRUNN",2016-12-14 15:07:04,120,596169,"Cargo FRI PORSGRUNN",NA,NA,"departure"
59.90734,30.07189,"Cargo","FRI PORSGRUNN",2016-12-14 15:05:05,118,596170,"Cargo FRI PORSGRUNN",1237.88791112611,119,"arrival"
55.73383,20.8565,"Cargo","FRI STREAM",2016-12-16 22:59:06,121,596185,"Cargo FRI STREAM",NA,NA,"departure"
55.73333,20.90433,"Cargo","FRI STREAM",2016-12-16 22:57:06,120,596186,"Cargo FRI STREAM",2998.38264233167,120,"arrival"
55.72581,21.09032,"Cargo","FRIGGA",2016-12-18 21:53:06,120,596738,"Cargo FRIGGA",NA,NA,"departure"
55.7151,21.10993,"Cargo","FRIGGA",2016-12-18 21:47:06,360,596739,"Cargo FRIGGA",1712.6396932289,360,"arrival"
55.72822,21.05804,"Cargo","GALAN",2016-12-14 17:51:06,121,613907,"Cargo GALAN",NA,NA,"departure"
55.72813,21.07358,"Cargo","GALAN",2016-12-14 17:47:18,228,613908,"Cargo GALAN",974.195123642309,228,"arrival"
55.7138,20.84608,"Cargo","GENCO RELIANCE",2016-12-19 13:05:06,128,626242,"Cargo GENCO RELIANCE",NA,NA,"departure"
55.71255,20.84023,"Cargo","GENCO RELIANCE",2016-12-19 13:01:08,238,626243,"Cargo GENCO RELIANCE",392.358584834383,238,"arrival"
54.58765,18.89527,"Cargo","GENCO THUNDER",2016-12-15 20:11:02,120,626276,"Cargo GENCO THUNDER",NA,NA,"departure"
54.57504,18.88104,"Cargo","GENCO THUNDER",2016-12-15 20:09:01,121,626277,"Cargo GENCO THUNDER",1677.28677816254,121,"arrival"
59.90361,30.08928,"Cargo","GEOR.POBEDONOSETS",2016-12-19 04:39:04,119,628612,"Cargo GEOR.POBEDONOSETS",NA,NA,"departure"
59.90687,30.07317,"Cargo","GEOR.POBEDONOSETS",2016-12-19 04:37:05,118,628613,"Cargo GEOR.POBEDONOSETS",969.711654634306,119,"arrival"
55.72425,21.09582,"Cargo","GRAND",2016-12-17 17:47:06,122,695030,"Cargo GRAND",NA,NA,"departure"
55.71623,21.1096,"Cargo","GRAND",2016-12-17 17:41:06,360,695031,"Cargo GRAND",1242.39343962483,360,"arrival"
57.93951,11.68789,"Cargo","GRANDE EUROPA",2016-12-19 04:27:05,120,696153,"Cargo GRANDE EUROPA",NA,NA,"departure"
57.9532,11.70476,"Cargo","GRANDE EUROPA",2016-12-19 04:25:06,119,696154,"Cargo GRANDE EUROPA",1820.93174236095,119,"arrival"
57.92467,11.6568,"Cargo","GRANDE MEDITERRANEO",2016-12-14 15:43:05,120,696190,"Cargo GRANDE MEDITERRANEO",NA,NA,"departure"
57.93787,11.68484,"Cargo","GRANDE MEDITERRANEO",2016-12-14 15:41:05,120,696191,"Cargo GRANDE MEDITERRANEO",2214.88349721425,120,"arrival"
55.72839,20.93926,"Cargo","GREEN ATLANTIC",2016-12-14 19:57:06,120,701871,"Cargo GREEN ATLANTIC",NA,NA,"departure"
55.72941,20.89913,"Cargo","GREEN ATLANTIC",2016-12-14 19:55:06,120,701872,"Cargo GREEN ATLANTIC",2518.11190035474,120,"arrival"
54.70317,18.98531,"Cargo","GREEN MALOY",2016-12-13 23:41:02,120,701902,"Cargo GREEN MALOY",NA,NA,"departure"
54.67597,18.97043,"Cargo","GREEN MALOY",2016-12-13 23:39:01,121,701903,"Cargo GREEN MALOY",3175.65570055293,121,"arrival"
57.69635,11.91565,"Cargo","GUTE",2016-12-14 10:09:08,118,721008,"Cargo GUTE",NA,NA,"departure"
57.60435,11.60661,"Cargo","GUTE",2016-12-13 20:49:05,48000,721009,"Cargo GUTE",21065.1880688657,48003,"arrival"
57.66417,11.7795,"Cargo","HANNA",2016-12-13 14:47:05,121,729201,"Cargo HANNA",NA,NA,"departure"
57.6785,11.80817,"Cargo","HANNA",2016-12-13 14:45:05,120,729202,"Cargo HANNA",2336.16949717552,120,"arrival"
55.72609,21.08812,"Cargo","HAUKUR",2016-12-13 23:43:06,121,730081,"Cargo HAUKUR",NA,NA,"departure"
55.72101,21.10265,"Cargo","HAUKUR",2016-12-13 23:39:06,240,730082,"Cargo HAUKUR",1072.19516935747,240,"arrival"
54.6917,18.99523,"Cargo","HEINA",2016-12-16 00:43:02,119,737123,"Cargo HEINA",NA,NA,"departure"
54.72828,18.9864,"Cargo","HEINA",2016-12-16 00:23:02,1200,737124,"Cargo HEINA",4111.47188307902,1200,"arrival"
59.90443,30.08541,"Cargo","HEINRICH SCHEPERS",2016-12-15 17:49:05,118,737149,"Cargo HEINRICH SCHEPERS",NA,NA,"departure"
59.90049,30.1049,"Cargo","HEINRICH SCHEPERS",2016-12-15 17:47:04,120,737150,"Cargo HEINRICH SCHEPERS",1173.08354400607,121,"arrival"
55.7266,21.08808,"Cargo","HELGA",2016-12-14 17:03:06,120,755312,"Cargo HELGA",NA,NA,"departure"
55.72045,21.10403,"Cargo","HELGA",2016-12-14 16:57:06,360,755313,"Cargo HELGA",1211.86862451488,360,"arrival"
57.99721,11.76468,"Cargo","HELGE",2016-12-20 06:17:06,NA,755966,"Cargo HELGE",NA,NA,"departure"
57.98425,11.75003,"Cargo","HELGE",2016-12-20 06:13:05,241,755967,"Cargo HELGE",1681.852592577,241,"arrival"
54.68575,20.22571,"Cargo","HELT",2016-12-17 03:39:03,119,756109,"Cargo HELT",NA,NA,"departure"
54.68167,20.16127,"Cargo","HELT",2016-12-17 03:23:02,961,756110,"Cargo HELT",4171.68211754027,961,"arrival"
54.79905,18.5848,"Cargo","HENDRIKA MARGARETHA",2016-12-19 16:45:06,116,757090,"Cargo HENDRIKA MARGARETHA",NA,NA,"departure"
57.92032,11.60437,"Cargo","HENDRIKA MARGARETHA",2016-12-13 20:05:05,506401,757091,"Cargo HENDRIKA MARGARETHA",552737.48669579,506401,"arrival"
59.90508,30.08266,"Cargo","HENNEKE RAMBOW",2016-12-18 08:43:04,119,757122,"Cargo HENNEKE RAMBOW",NA,NA,"departure"
59.90027,30.10585,"Cargo","HENNEKE RAMBOW",2016-12-18 08:41:05,119,757123,"Cargo HENNEKE RAMBOW",1400.91057648479,119,"arrival"
57.65933,11.76417,"Cargo","HOEGH TRIDENT",2016-12-14 17:13:05,121,764805,"Cargo HOEGH TRIDENT",NA,NA,"departure"
57.66784,11.78583,"Cargo","HOEGH TRIDENT",2016-12-14 17:11:04,121,764806,"Cargo HOEGH TRIDENT",1600.24883818452,121,"arrival"
59.90167,30.09926,"Cargo","HOOD ISLAND",2016-12-19 14:27:04,119,765600,"Cargo HOOD ISLAND",NA,NA,"departure"
59.90606,30.07799,"Cargo","HOOD ISLAND",2016-12-19 14:25:04,119,765601,"Cargo HOOD ISLAND",1283.95994882485,120,"arrival"
59.91205,30.04817,"Cargo","HOOGE",2016-12-15 15:07:05,118,766892,"Cargo HOOGE",NA,NA,"departure"
59.9176,30.02119,"Cargo","HOOGE",2016-12-15 15:03:04,240,766893,"Cargo HOOGE",1627.40010807878,241,"arrival"
59.90733,30.07104,"Cargo","HVITANES",2016-12-13 18:41:04,120,771654,"Cargo HVITANES",NA,NA,"departure"
59.9038,30.08871,"Cargo","HVITANES",2016-12-13 18:39:05,118,771655,"Cargo HVITANES",1061.71146438533,119,"arrival"
59.86925,30.21973,"Cargo","ICE RIVER",2016-12-13 21:01:05,118,774028,"Cargo ICE RIVER",NA,NA,"departure"
59.86879,30.22008,"Cargo","ICE RIVER",2016-12-13 20:59:05,119,774029,"Cargo ICE RIVER",54.8148566843358,120,"arrival"
57.63196,11.68386,"Cargo","ICE RUNNER",2016-12-16 23:35:04,121,774322,"Cargo ICE RUNNER",NA,NA,"departure"
57.64557,11.70243,"Cargo","ICE RUNNER",2016-12-16 23:33:05,119,774323,"Cargo ICE RUNNER",1876.08714866952,119,"arrival"
57.68828,11.89038,"Cargo","ICELAND CEMENT",2016-12-18 23:49:08,117,776118,"Cargo ICELAND CEMENT",NA,NA,"departure"
57.69333,11.90667,"Cargo","ICELAND CEMENT",2016-12-18 23:47:07,119,776119,"Cargo ICELAND CEMENT",1120.46830140781,121,"arrival"
57.93297,12.067,"Cargo","IDA H",2016-12-16 15:51:08,117,777318,"Cargo IDA H",NA,NA,"departure"
57.91244,12.0521,"Cargo","IDA H",2016-12-16 15:43:07,478,777319,"Cargo IDA H",2449.26628404507,481,"arrival"
54.75998,18.99467,"Cargo","IDUNA",2016-12-14 15:49:01,121,777845,"Cargo IDUNA",NA,NA,"departure"
54.70171,18.99737,"Cargo","IDUNA",2016-12-14 15:27:02,1319,777846,"Cargo IDUNA",6488.90800389333,1319,"arrival"
59.91415,30.03794,"Cargo","INA LOTTE",2016-12-14 15:13:04,119,785512,"Cargo INA LOTTE",NA,NA,"departure"
59.91727,30.02257,"Cargo","INA LOTTE",2016-12-14 15:11:04,119,785513,"Cargo INA LOTTE",925.324515046738,120,"arrival"
54.69598,18.99102,"Cargo","IRIS BOLTEN",2016-12-15 10:15:01,121,798917,"Cargo IRIS BOLTEN",NA,NA,"departure"
55.62799,20.80453,"Cargo","IRIS BOLTEN",2016-12-15 03:51:06,23035,798918,"Cargo IRIS BOLTEN",155116.907937662,23035,"arrival"
54.70267,20.45184,"Cargo","IVAN SHCHEPETOV",2016-12-14 18:27:03,120,804798,"Cargo IVAN SHCHEPETOV",NA,NA,"departure"
54.6701,20.14155,"Cargo","IVAN SHCHEPETOV",2016-12-14 02:47:02,56401,804799,"Cargo IVAN SHCHEPETOV",20293.1652999146,56401,"arrival"
55.73813,20.81173,"Cargo","IVS KITE",2016-12-14 16:09:07,NA,804813,"Cargo IVS KITE",NA,NA,"departure"
55.73795,20.83695,"Cargo","IVS KITE",2016-12-14 16:07:06,121,804814,"Cargo IVS KITE",1580.67358120879,121,"arrival"
55.69443,20.88115,"Cargo","JADE",2016-12-14 22:57:06,121,806178,"Cargo JADE",NA,NA,"departure"
55.68204,20.84196,"Cargo","JADE",2016-12-14 22:55:06,120,806179,"Cargo JADE",2819.55955381229,120,"arrival"
57.65103,11.79379,"Cargo","JETTEN GBG STAD VA",2016-12-14 10:09:05,121,835427,"Cargo JETTEN GBG STAD VA",NA,NA,"departure"
57.60263,11.79241,"Cargo","JETTEN GBG STAD VA",2016-12-13 14:21:05,71280,835428,"Cargo JETTEN GBG STAD VA",5388.49117579613,71280,"arrival"
57.93277,11.67727,"Cargo","JOMI",2016-12-15 11:27:06,119,845006,"Cargo JOMI",NA,NA,"departure"
57.92633,11.655,"Cargo","JOMI",2016-12-15 11:25:05,121,845007,"Cargo JOMI",1498.86125719657,121,"arrival"
57.61271,11.67293,"Cargo","JONNI RITSCHER",2016-12-19 03:53:05,121,845871,"Cargo JONNI RITSCHER",NA,NA,"departure"
57.60165,11.66195,"Cargo","JONNI RITSCHER",2016-12-19 03:51:05,120,845872,"Cargo JONNI RITSCHER",1394.49188483912,120,"arrival"
54.58729,18.87202,"Cargo","JSP ROVER",2016-12-17 13:37:02,120,847350,"Cargo JSP ROVER",NA,NA,"departure"
54.60287,18.88745,"Cargo","JSP ROVER",2016-12-17 13:35:01,121,847351,"Cargo JSP ROVER",1999.56909147333,121,"arrival"
54.53614,18.81624,"Cargo","JUNO",2016-12-17 14:01:01,121,848255,"Cargo JUNO",NA,NA,"departure"
54.52653,18.80179,"Cargo","JUNO",2016-12-17 13:59:01,120,848256,"Cargo JUNO",1419.73019882694,120,"arrival"
59.91813,30.01789,"Cargo","KAIE",2016-12-18 17:03:05,119,857157,"Cargo KAIE",NA,NA,"departure"
59.92081,30.00438,"Cargo","KAIE",2016-12-18 17:01:04,119,857158,"Cargo KAIE",810.683915661447,121,"arrival"
59.91663,30.02603,"Cargo","KAPITAN MIRONOV",2016-12-20 02:29:04,119,873219,"Cargo KAPITAN MIRONOV",NA,NA,"departure"
59.91975,30.01034,"Cargo","KAPITAN MIRONOV",2016-12-20 02:27:04,119,873220,"Cargo KAPITAN MIRONOV",941.838457701937,120,"arrival"
59.88849,30.16375,"Cargo","KAPITAN YAKOVLEV",2016-12-16 08:37:04,120,891737,"Cargo KAPITAN YAKOVLEV",NA,NA,"departure"
59.88624,30.17687,"Cargo","KAPITAN YAKOVLEV",2016-12-16 08:35:05,118,891738,"Cargo KAPITAN YAKOVLEV",774.366788161606,119,"arrival"
54.53733,18.6585,"Cargo","KAREN C",2016-12-18 11:05:07,115,898774,"Cargo KAREN C",NA,NA,"departure"
54.53817,18.68033,"Cargo","KAREN C",2016-12-18 11:03:06,116,898775,"Cargo KAREN C",1412.96259972169,121,"arrival"
54.54369,18.80568,"Cargo","KAROLI",2016-12-19 12:59:02,120,899478,"Cargo KAROLI",NA,NA,"departure"
54.5644,18.83774,"Cargo","KAROLI",2016-12-19 12:55:01,241,899479,"Cargo KAROLI",3098.18940038824,241,"arrival"
59.91918,30.01302,"Cargo","KEGUMS",2016-12-13 21:33:04,120,911458,"Cargo KEGUMS",NA,NA,"departure"
59.91596,30.02845,"Cargo","KEGUMS",2016-12-13 21:31:04,119,911459,"Cargo KEGUMS",932.605617475138,120,"arrival"
54.76132,18.98187,"Cargo","KERLI",2016-12-17 08:01:02,120,920528,"Cargo KERLI",NA,NA,"departure"
54.73725,18.97902,"Cargo","KERLI",2016-12-17 07:59:01,121,920529,"Cargo KERLI",2685.70948317424,121,"arrival"
59.89115,30.20763,"Cargo","KNOSSOS",2016-12-16 09:53:05,119,930773,"Cargo KNOSSOS",NA,NA,"departure"
59.89617,30.21417,"Cargo","KNOSSOS",2016-12-16 09:51:04,119,930774,"Cargo KNOSSOS",667.565467161262,121,"arrival"
55.72777,21.08245,"Cargo","KONYA",2016-12-15 16:19:07,120,948498,"Cargo KONYA",NA,NA,"departure"
55.72832,21.06178,"Cargo","KONYA",2016-12-15 16:17:06,121,948499,"Cargo KONYA",1297.17385392188,121,"arrival"
54.6377,19.98747,"Cargo","KOZNITZA",2016-12-20 09:31:03,119,951154,"Cargo KOZNITZA",NA,NA,"departure"
54.63397,19.93747,"Cargo","KOZNITZA",2016-12-20 09:11:03,1200,951155,"Cargo KOZNITZA",3248.07546359197,1200,"arrival"
54.42725,18.89543,"Cargo","KYMOPOLIA",2016-12-16 12:57:02,120,964211,"Cargo KYMOPOLIA",NA,NA,"departure"
54.4211,18.846,"Cargo","KYMOPOLIA",2016-12-16 12:55:01,121,964212,"Cargo KYMOPOLIA",3273.64340019776,121,"arrival"
57.99671,12.12702,"Cargo","LADY AMI",2016-12-19 12:33:08,NA,970855,"Cargo LADY AMI",NA,NA,"departure"
57.98264,12.12585,"Cargo","LADY AMI",2016-12-19 12:27:08,357,970856,"Cargo LADY AMI",1567.78605570034,360,"arrival"
54.57534,18.85512,"Cargo","LANTAU ARROW",2016-12-13 12:51:02,119,980584,"Cargo LANTAU ARROW",NA,NA,"departure"
54.5937,18.8818,"Cargo","LANTAU ARROW",2016-12-13 12:49:02,120,980585,"Cargo LANTAU ARROW",2671.98107340955,120,"arrival"
55.6684,21.14289,"Cargo","LARGONA",2016-12-17 10:07:06,121,980646,"Cargo LARGONA",NA,NA,"departure"
55.65171,21.15729,"Cargo","LARGONA",2016-12-17 09:57:06,600,980647,"Cargo LARGONA",2066.28978648305,600,"arrival"
59.90895,30.06353,"Cargo","LAVAUX",2016-12-14 22:29:04,119,980715,"Cargo LAVAUX",NA,NA,"departure"
59.90585,30.07876,"Cargo","LAVAUX",2016-12-14 22:27:04,119,980716,"Cargo LAVAUX",917.44537287102,120,"arrival"
59.91127,30.052,"Cargo","LAZURITE",2016-12-20 05:35:04,119,981669,"Cargo LAZURITE",NA,NA,"departure"
59.91562,30.03036,"Cargo","LAZURITE",2016-12-20 05:33:04,119,981670,"Cargo LAZURITE",1301.09621266185,120,"arrival"
57.65167,11.72317,"Cargo","LECKO",2016-12-20 10:27:05,120,988866,"Cargo LECKO",NA,NA,"departure"
57.61483,11.67417,"Cargo","LECKO",2016-12-20 10:11:05,960,988867,"Cargo LECKO",5034.39480992664,960,"arrival"
54.76741,18.95644,"Cargo","LILY-B",2016-12-15 23:13:02,120,992905,"Cargo LILY-B",NA,NA,"departure"
54.76496,18.98556,"Cargo","LILY-B",2016-12-15 23:11:01,121,992906,"Cargo LILY-B",1889.92199556495,121,"arrival"
55.83518,20.86139,"Cargo","LINDA",2016-12-15 12:59:07,118,996033,"Cargo LINDA",NA,NA,"departure"
55.8541,20.839,"Cargo","LINDA",2016-12-15 12:57:06,120,996034,"Cargo LINDA",2528.6602792876,121,"arrival"
54.50918,18.78108,"Cargo","LINGEDIJK",2016-12-14 10:09:07,115,997076,"Cargo LINGEDIJK",NA,NA,"departure"
54.40303,18.67678,"Cargo","LINGEDIJK",2016-12-14 02:51:02,26279,997077,"Cargo LINGEDIJK",13608.3680664306,26285,"arrival"
54.54704,18.81022,"Cargo","LISA",2016-12-15 13:11:02,120,999906,"Cargo LISA",NA,NA,"departure"
54.55636,18.82552,"Cargo","LISA",2016-12-15 13:09:01,121,999907,"Cargo LISA",1432.5292447975,121,"arrival"
54.73518,18.7587,"Cargo","LISA D",2016-12-16 03:01:07,115,1000671,"Cargo LISA D",NA,NA,"departure"
54.7411,18.74127,"Cargo","LISA D",2016-12-16 02:59:07,114,1000672,"Cargo LISA D",1299.63802464349,120,"arrival"
59.91631,30.0266,"Cargo","LISTER",2016-12-19 03:19:04,119,1001603,"Cargo LISTER",NA,NA,"departure"
59.91955,30.01055,"Cargo","LISTER",2016-12-19 03:17:04,119,1001604,"Cargo LISTER",965.455409815079,120,"arrival"
54.71239,18.92755,"Cargo","LIV KRISTIN",2016-12-16 18:09:02,119,1001634,"Cargo LIV KRISTIN",NA,NA,"departure"
54.6979,18.96096,"Cargo","LIV KRISTIN",2016-12-16 18:07:01,121,1001635,"Cargo LIV KRISTIN",2686.9209138275,121,"arrival"
55.66075,20.80509,"Cargo","LIVA GRETA",2016-12-17 05:11:06,119,1002727,"Cargo LIVA GRETA",NA,NA,"departure"
54.67803,18.99798,"Cargo","LIVA GRETA",2016-12-16 19:53:02,33484,1002728,"Cargo LIVA GRETA",158636.853402136,33484,"arrival"
54.53465,18.52815,"Cargo","LORD BYRON",2016-12-20 00:13:06,129,1014512,"Cargo LORD BYRON",NA,NA,"departure"
54.53497,18.52835,"Cargo","LORD BYRON",2016-12-20 00:11:07,119,1014513,"Cargo LORD BYRON",37.8920924336595,119,"arrival"
57.87833,12.0275,"Cargo","LURO",2016-12-15 05:57:08,117,1042023,"Cargo LURO",NA,NA,"departure"
57.8895,12.03617,"Cargo","LURO",2016-12-15 05:55:08,117,1042024,"Cargo LURO",1345.14499222917,120,"arrival"
55.67367,21.14067,"Cargo","LYRA",2016-12-14 18:33:07,119,1042262,"Cargo LYRA",NA,NA,"departure"
55.66217,21.14783,"Cargo","LYRA",2016-12-14 18:27:07,360,1042263,"Cargo LYRA",1356.80475530897,360,"arrival"
59.91979,30.00944,"Cargo","MAERSK NIAMEY",2016-12-20 10:03:04,NA,1044549,"Cargo MAERSK NIAMEY",NA,NA,"departure"
59.91205,30.04847,"Cargo","MAERSK NIAMEY",2016-12-20 09:55:04,479,1044550,"Cargo MAERSK NIAMEY",2342.15894337249,480,"arrival"
54.78387,18.98247,"Cargo","MAERSKMCKINNEYMOLLER",2016-12-19 10:57:02,120,1046201,"Cargo MAERSKMCKINNEYMOLLER",NA,NA,"departure"
54.45481,18.99613,"Cargo","MAERSKMCKINNEYMOLLER",2016-12-19 09:41:02,4560,1046202,"Cargo MAERSKMCKINNEYMOLLER",36641.3710793647,4560,"arrival"
57.62883,11.68972,"Cargo","MAGNOLIA SEAWAYS",2016-12-16 06:05:05,121,1049032,"Cargo MAGNOLIA SEAWAYS",NA,NA,"departure"
57.61156,11.66525,"Cargo","MAGNOLIA SEAWAYS",2016-12-16 06:03:05,120,1049033,"Cargo MAGNOLIA SEAWAYS",2413.29295254316,120,"arrival"
54.54233,18.5095,"Cargo","MARIS",2016-12-14 10:09:07,121,1084189,"Cargo MARIS",NA,NA,"departure"
54.73133,18.7965,"Cargo","MARIS",2016-12-14 02:51:02,26285,1084190,"Cargo MARIS",28009.8704828783,26285,"arrival"
54.38618,18.67183,"Cargo","MARNE",2016-12-13 16:41:02,120,1085326,"Cargo MARNE",NA,NA,"departure"
54.38641,18.67165,"Cargo","MARNE",2016-12-13 16:39:02,120,1085327,"Cargo MARNE",28.1368976441457,120,"arrival"
55.72418,21.09668,"Cargo","MAUREEN S",2016-12-19 04:59:06,120,1086347,"Cargo MAUREEN S",NA,NA,"departure"
55.71506,21.11333,"Cargo","MAUREEN S",2016-12-19 04:53:06,360,1086348,"Cargo MAUREEN S",1456.20721963587,360,"arrival"
57.68228,11.83933,"Cargo","MELUSINE",2016-12-14 19:57:08,117,1088130,"Cargo MELUSINE",NA,NA,"departure"
57.67873,11.7854,"Cargo","MELUSINE",2016-12-14 19:55:05,120,1088131,"Cargo MELUSINE",3233.92584096325,123,"arrival"
54.45842,18.69403,"Cargo","MERI",2016-12-16 12:57:07,115,1088222,"Cargo MERI",NA,NA,"departure"
54.4373,18.65869,"Cargo","MERI",2016-12-16 12:55:07,115,1088223,"Cargo MERI",3280.21260629561,120,"arrival"
55.10017,19.80171,"Cargo","MERITA",2016-12-20 00:39:03,119,1090252,"Cargo MERITA",NA,NA,"departure"
54.67559,19.80014,"Cargo","MERITA",2016-12-19 22:13:02,8761,1090253,"Cargo MERITA",47264.1362994666,8761,"arrival"
59.90845,30.06624,"Cargo","MIKHAIL DUDIN",2016-12-15 04:01:04,119,1105455,"Cargo MIKHAIL DUDIN",NA,NA,"departure"
59.91255,30.04623,"Cargo","MIKHAIL DUDIN",2016-12-15 03:59:04,119,1105456,"Cargo MIKHAIL DUDIN",1206.4289013439,120,"arrival"
59.90219,30.09733,"Cargo","MIKHAIL LOMONOSOV",2016-12-18 21:43:04,120,1105472,"Cargo MIKHAIL LOMONOSOV",NA,NA,"departure"
59.89796,30.11797,"Cargo","MIKHAIL LOMONOSOV",2016-12-18 21:41:04,119,1105473,"Cargo MIKHAIL LOMONOSOV",1244.78575346297,120,"arrival"
54.799,18.99783,"Cargo","MILAN EXPRESS",2016-12-17 00:51:02,120,1108872,"Cargo MILAN EXPRESS",NA,NA,"departure"
59.92189,30.00013,"Cargo","MILAN EXPRESS",2016-12-13 18:35:05,281757,1108873,"Cargo MILAN EXPRESS",870758.400318458,281757,"arrival"
57.69861,11.9183,"Cargo","MINERVA",2016-12-18 23:33:08,117,1109685,"Cargo MINERVA",NA,NA,"departure"
57.69083,11.90092,"Cargo","MINERVA",2016-12-18 23:31:07,119,1109686,"Cargo MINERVA",1348.77116984135,121,"arrival"
54.64986,19.86447,"Cargo","MIRVA VG",2016-12-19 15:31:03,120,1121254,"Cargo MIRVA VG",NA,NA,"departure"
54.65864,19.83358,"Cargo","MIRVA VG",2016-12-19 15:23:03,480,1121255,"Cargo MIRVA VG",2216.43376558663,480,"arrival"
59.9165,30.02633,"Cargo","MISANA",2016-12-19 17:55:04,126,1122738,"Cargo MISANA",NA,NA,"departure"
59.91268,30.04517,"Cargo","MISANA",2016-12-19 17:53:04,120,1122739,"Cargo MISANA",1134.07966672005,120,"arrival"
55.70358,21.12029,"Cargo","MISTRAL",2016-12-16 20:21:06,120,1123251,"Cargo MISTRAL",NA,NA,"departure"
55.68801,21.13291,"Cargo","MISTRAL",2016-12-16 20:15:06,360,1123252,"Cargo MISTRAL",1905.52189701251,360,"arrival"
57.67783,11.71817,"Cargo","MITO STRAIT",2016-12-15 20:21:05,120,1123422,"Cargo MITO STRAIT",NA,NA,"departure"
57.67717,11.75267,"Cargo","MITO STRAIT",2016-12-15 20:19:05,120,1123423,"Cargo MITO STRAIT",2054.78073674873,120,"arrival"
59.91857,30.01613,"Cargo","MODULUS 2",2016-12-14 10:09:04,120,1124140,"Cargo MODULUS 2",NA,NA,"departure"
59.87159,30.21377,"Cargo","MODULUS 2",2016-12-14 02:29:04,27599,1124141,"Cargo MODULUS 2",12211.9621426075,27600,"arrival"
57.60555,11.66162,"Cargo","MOL QUINTET",2016-12-15 18:45:09,116,1125475,"Cargo MOL QUINTET",NA,NA,"departure"
54.46572,18.99627,"Cargo","MOL QUINTET",2016-12-14 17:49:01,89768,1125476,"Cargo MOL QUINTET",574153.307288814,89768,"arrival"
57.67567,11.80383,"Cargo","MSC AMY",2016-12-17 00:47:07,117,1133895,"Cargo MSC AMY",NA,NA,"departure"
57.68117,11.8255,"Cargo","MSC AMY",2016-12-17 00:45:08,117,1133896,"Cargo MSC AMY",1427.72469074053,119,"arrival"
55.72766,20.88405,"Cargo","MSC MANDRAKI",2016-12-13 11:53:06,120,1134887,"Cargo MSC MANDRAKI",NA,NA,"departure"
55.72787,20.85677,"Cargo","MSC MANDRAKI",2016-12-13 11:51:06,120,1134888,"Cargo MSC MANDRAKI",1710.25736207076,120,"arrival"
55.74283,20.81294,"Cargo","MSC MATILDE",2016-12-19 02:55:05,122,1135540,"Cargo MSC MATILDE",NA,NA,"departure"
54.65747,18.95536,"Cargo","MSC MATILDE",2016-12-19 01:59:02,3363,1135541,"Cargo MSC MATILDE",168883.038235232,3363,"arrival"
57.67819,11.77309,"Cargo","MSC OSCAR",2016-12-14 15:43:05,120,1136848,"Cargo MSC OSCAR",NA,NA,"departure"
57.67958,11.79725,"Cargo","MSC OSCAR",2016-12-14 15:41:05,120,1136849,"Cargo MSC OSCAR",1446.26824670219,120,"arrival"
59.89602,30.1267,"Cargo","MSC SABRINA",2016-12-16 23:01:04,120,1137480,"Cargo MSC SABRINA",NA,NA,"departure"
59.88975,30.15704,"Cargo","MSC SABRINA",2016-12-16 22:59:04,119,1137481,"Cargo MSC SABRINA",1832.32609829081,120,"arrival"
59.91667,30.02511,"Cargo","MSC SANTHYA",2016-12-20 04:15:03,120,1138981,"Cargo MSC SANTHYA",NA,NA,"departure"
59.91933,30.01209,"Cargo","MSC SANTHYA",2016-12-20 04:13:03,120,1138982,"Cargo MSC SANTHYA",784.514045201786,120,"arrival"
54.78098,18.93245,"Cargo","MULTIMAR",2016-12-20 11:07:03,119,1144271,"Cargo MULTIMAR",NA,NA,"departure"
54.78885,18.91414,"Cargo","MULTIMAR",2016-12-20 11:01:02,361,1144272,"Cargo MULTIMAR",1465.94293855861,361,"arrival"
54.64939,19.86546,"Cargo","NACC TORONTO",2016-12-13 23:23:03,119,1153845,"Cargo NACC TORONTO",NA,NA,"departure"
54.63306,19.89324,"Cargo","NACC TORONTO",2016-12-13 23:21:03,120,1153846,"Cargo NACC TORONTO",2550.91951418396,120,"arrival"
57.93928,11.68787,"Cargo","NAVEN",2016-12-14 19:57:05,120,1175720,"Cargo NAVEN",NA,NA,"departure"
57.95989,11.71741,"Cargo","NAVEN",2016-12-14 19:55:05,120,1175721,"Cargo NAVEN",2882.51800558412,120,"arrival"
55.72868,21.05503,"Cargo","NAVI BALTIC",2016-12-15 06:23:06,122,1177031,"Cargo NAVI BALTIC",NA,NA,"departure"
55.72889,21.0307,"Cargo","NAVI BALTIC",2016-12-15 06:21:07,119,1177032,"Cargo NAVI BALTIC",1525.31065279894,119,"arrival"
55.70358,21.12755,"Cargo","NBAAR MOON",2016-12-18 21:05:06,120,1180770,"Cargo NBAAR MOON",NA,NA,"departure"
55.70363,21.12763,"Cargo","NBAAR MOON",2016-12-18 21:03:07,119,1180771,"Cargo NBAAR MOON",7.49405869421927,119,"arrival"
54.65233,19.85667,"Cargo","NBP CARRIER",2016-12-15 23:43:03,120,1180780,"Cargo NBP CARRIER",NA,NA,"departure"
54.63794,19.88478,"Cargo","NBP CARRIER",2016-12-15 23:41:03,120,1180781,"Cargo NBP CARRIER",2417.55548819845,120,"arrival"
57.60668,11.6594,"Cargo","NEWYORKER",2016-12-19 02:07:05,120,1200494,"Cargo NEWYORKER",NA,NA,"departure"
57.60207,11.62982,"Cargo","NEWYORKER",2016-12-19 02:05:05,120,1200495,"Cargo NEWYORKER",1837.29920455541,120,"arrival"
59.91663,30.02644,"Cargo","NIKOLAS",2016-12-18 02:19:04,119,1202616,"Cargo NIKOLAS",NA,NA,"departure"
59.92066,30.00638,"Cargo","NIKOLAS",2016-12-18 02:17:04,119,1202617,"Cargo NIKOLAS",1205.83742774811,120,"arrival"
54.53049,18.53539,"Cargo","NINA 1",2016-12-20 09:31:07,359,1206662,"Cargo NINA 1",NA,NA,"departure"
54.53569,18.56993,"Cargo","NINA 1",2016-12-20 09:11:07,1200,1206663,"Cargo NINA 1",2304.85430548579,1200,"arrival"
59.90729,30.07167,"Cargo","NJORD",2016-12-19 09:51:04,119,1209070,"Cargo NJORD",NA,NA,"departure"
59.90236,30.09618,"Cargo","NJORD",2016-12-19 09:49:06,117,1209071,"Cargo NJORD",1474.11115787845,118,"arrival"
59.90061,30.10557,"Cargo","NORDEROOG",2016-12-20 09:31:04,119,1212432,"Cargo NORDEROOG",NA,NA,"departure"
59.88723,30.17037,"Cargo","NORDEROOG",2016-12-20 09:11:04,1200,1212433,"Cargo NORDEROOG",3912.88276883273,1200,"arrival"
57.67521,11.70776,"Cargo","NORDIC ACE",2016-12-19 19:07:05,119,1213681,"Cargo NORDIC ACE",NA,NA,"departure"
57.67709,11.73576,"Cargo","NORDIC ACE",2016-12-19 19:05:05,120,1213682,"Cargo NORDIC ACE",1679.73212397331,120,"arrival"
59.91153,30.05079,"Cargo","NORDIC HAMBURG",2016-12-17 14:07:04,119,1214359,"Cargo NORDIC HAMBURG",NA,NA,"departure"
59.9152,30.03243,"Cargo","NORDIC HAMBURG",2016-12-17 14:05:04,119,1214360,"Cargo NORDIC HAMBURG",1103.03572324703,120,"arrival"
54.63261,19.91726,"Cargo","NORDIC PHILIP",2016-12-19 07:49:03,119,1215167,"Cargo NORDIC PHILIP",NA,NA,"departure"
54.63322,19.89455,"Cargo","NORDIC PHILIP",2016-12-19 07:47:02,121,1215168,"Cargo NORDIC PHILIP",1464.85150978237,121,"arrival"
59.90933,30.06114,"Cargo","NOVAYA ZEMLYA",2016-12-15 10:35:04,120,1231733,"Cargo NOVAYA ZEMLYA",NA,NA,"departure"
59.90448,30.08493,"Cargo","NOVAYA ZEMLYA",2016-12-15 10:33:04,120,1231734,"Cargo NOVAYA ZEMLYA",1433.43309334706,120,"arrival"
54.78623,18.93298,"Cargo","NURI SONAY",2016-12-17 04:11:01,121,1235261,"Cargo NURI SONAY",NA,NA,"departure"
54.79419,18.91866,"Cargo","NURI SONAY",2016-12-17 04:09:01,120,1235262,"Cargo NURI SONAY",1276.69216216942,120,"arrival"
55.7255,21.09081,"Cargo","OCEAN RAINBOW",2016-12-16 15:51:06,120,1241584,"Cargo OCEAN RAINBOW",NA,NA,"departure"
55.72824,21.05654,"Cargo","OCEAN RAINBOW",2016-12-16 15:43:06,480,1241585,"Cargo OCEAN RAINBOW",2169.87269856892,480,"arrival"
54.76856,18.99601,"Cargo","OCEAN VOYAGER",2016-12-19 10:21:02,119,1243199,"Cargo OCEAN VOYAGER",NA,NA,"departure"
54.74373,18.99928,"Cargo","OCEAN VOYAGER",2016-12-19 10:13:02,480,1243200,"Cargo OCEAN VOYAGER",2772.03321818328,480,"arrival"
54.63303,19.92508,"Cargo","OLGA",2016-12-17 01:09:02,120,1265869,"Cargo OLGA",NA,NA,"departure"
54.64677,20.06415,"Cargo","OLGA",2016-12-17 01:07:03,119,1265870,"Cargo OLGA",9088.80157545195,119,"arrival"
59.91593,30.02891,"Cargo","OMSKIY-132",2016-12-18 20:03:04,119,1273070,"Cargo OMSKIY-132",NA,NA,"departure"
59.91209,30.04754,"Cargo","OMSKIY-132",2016-12-18 20:01:04,119,1273071,"Cargo OMSKIY-132",1124.08613578729,120,"arrival"
59.91987,30.01001,"Cargo","OMSKIY-134",2016-12-13 23:19:04,120,1273930,"Cargo OMSKIY-134",NA,NA,"departure"
59.9176,30.02091,"Cargo","OMSKIY-134",2016-12-13 23:17:04,120,1273931,"Cargo OMSKIY-134",658.588686290525,120,"arrival"
54.67465,18.96738,"Cargo","OMSKIY-140",2016-12-15 21:25:01,121,1274296,"Cargo OMSKIY-140",NA,NA,"departure"
54.66514,18.95891,"Cargo","OMSKIY-140",2016-12-15 21:23:01,120,1274297,"Cargo OMSKIY-140",1190.81338040679,120,"arrival"
54.63283,19.91191,"Cargo","OMSKIY-141",2016-12-14 23:33:03,119,1275394,"Cargo OMSKIY-141",NA,NA,"departure"
54.65581,19.84741,"Cargo","OMSKIY-141",2016-12-14 23:31:02,121,1275395,"Cargo OMSKIY-141",4879.15141789843,121,"arrival"
59.92119,30.00356,"Cargo","OOCL RAUMA",2016-12-17 10:43:04,NA,1275407,"Cargo OOCL RAUMA",NA,NA,"departure"
59.91715,30.02331,"Cargo","OOCL RAUMA",2016-12-17 10:41:05,118,1275408,"Cargo OOCL RAUMA",1190.20355077477,119,"arrival"
59.90803,30.06803,"Cargo","OSTEREMS",2016-12-18 03:35:04,120,1305617,"Cargo OSTEREMS",NA,NA,"departure"
59.9116,30.05038,"Cargo","OSTEREMS",2016-12-18 03:33:04,119,1305618,"Cargo OSTEREMS",1062.2152247602,120,"arrival"
55.72864,21.05701,"Cargo","PACIFIC CALM",2016-12-15 12:59:07,119,1314324,"Cargo PACIFIC CALM",NA,NA,"departure"
55.72888,21.04194,"Cargo","PACIFIC CALM",2016-12-15 12:57:06,121,1314325,"Cargo PACIFIC CALM",945.044654464926,121,"arrival"
59.89337,30.21968,"Cargo","PACIFIC WINTER",2016-12-16 20:51:04,119,1316908,"Cargo PACIFIC WINTER",NA,NA,"departure"
59.89372,30.21974,"Cargo","PACIFIC WINTER",2016-12-16 20:49:05,119,1316909,"Cargo PACIFIC WINTER",39.1056037141513,119,"arrival"
59.89198,30.14679,"Cargo","PAPUA",2016-12-14 18:43:04,120,1319579,"Cargo PAPUA",NA,NA,"departure"
59.88899,30.16134,"Cargo","PAPUA",2016-12-14 18:41:04,119,1319580,"Cargo PAPUA",878.059929390789,120,"arrival"
59.9175,30.02117,"Cargo","PAULINE RUSS",2016-12-13 22:17:04,119,1330617,"Cargo PAULINE RUSS",NA,NA,"departure"
59.913,30.0425,"Cargo","PAULINE RUSS",2016-12-13 22:15:04,119,1330618,"Cargo PAULINE RUSS",1291.38062495978,120,"arrival"
54.72048,18.99044,"Cargo","PETER PAN",2016-12-19 18:07:02,119,1346973,"Cargo PETER PAN",NA,NA,"departure"
54.76785,18.99642,"Cargo","PETER PAN",2016-12-19 17:57:01,601,1346974,"Cargo PETER PAN",5287.18597826406,601,"arrival"
57.64103,11.69722,"Cargo","PETUNIA SEAWAYS",2016-12-17 16:55:05,120,1348338,"Cargo PETUNIA SEAWAYS",NA,NA,"departure"
57.65259,11.72198,"Cargo","PETUNIA SEAWAYS",2016-12-17 16:53:05,120,1348339,"Cargo PETUNIA SEAWAYS",1957.43782210047,120,"arrival"
54.78657,18.99969,"Cargo","PHANTOM",2016-12-18 14:37:01,121,1350178,"Cargo PHANTOM",NA,NA,"departure"
59.92157,30.00041,"Cargo","PHANTOM",2016-12-16 10:05:04,189117,1350179,"Cargo PHANTOM",871651.093967599,189117,"arrival"
54.67082,19.80477,"Cargo","PHOENIX II",2016-12-20 00:41:02,120,1352148,"Cargo PHOENIX II",NA,NA,"departure"
54.45469,18.99999,"Cargo","PHOENIX II",2016-12-19 19:03:01,20281,1352149,"Cargo PHOENIX II",57244.9000906938,20281,"arrival"
57.87129,12.02258,"Cargo","PINTA",2016-12-17 02:51:07,118,1373641,"Cargo PINTA",NA,NA,"departure"
57.8814,12.02976,"Cargo","PINTA",2016-12-17 02:49:07,118,1373642,"Cargo PINTA",1203.01744217641,120,"arrival"
59.87857,30.22628,"Cargo","PIRITA",2016-12-14 00:45:04,119,1378539,"Cargo PIRITA",NA,NA,"departure"
59.87837,30.22568,"Cargo","PIRITA",2016-12-14 00:43:04,119,1378540,"Cargo PIRITA",40.2388934773966,120,"arrival"
59.90575,30.07908,"Cargo","PITZTAL",2016-12-15 10:09:05,118,1378945,"Cargo PITZTAL",NA,NA,"departure"
59.902,30.09755,"Cargo","PITZTAL",2016-12-15 10:07:04,119,1378946,"Cargo PITZTAL",1112.32547916743,121,"arrival"
59.9163,30.26295,"Cargo","PL 2",2016-12-20 06:29:04,119,1380223,"Cargo PL 2",NA,NA,"departure"
59.91913,30.26153,"Cargo","PL 2",2016-12-20 06:27:05,118,1380224,"Cargo PL 2",324.845265429166,119,"arrival"
59.90124,30.1017,"Cargo","PLYCA",2016-12-14 21:37:04,119,1385386,"Cargo PLYCA",NA,NA,"departure"
59.89847,30.11561,"Cargo","PLYCA",2016-12-14 21:35:04,119,1385387,"Cargo PLYCA",835.549748354641,120,"arrival"
59.92054,30.00686,"Cargo","POLA MUROM",2016-12-13 22:43:04,NA,1390509,"Cargo POLA MUROM",NA,NA,"departure"
59.91764,30.021,"Cargo","POLA MUROM",2016-12-13 22:41:04,119,1390510,"Cargo POLA MUROM",852.445787262123,120,"arrival"
59.9132,30.04201,"Cargo","POLA UGLICH",2016-12-19 02:07:05,118,1391790,"Cargo POLA UGLICH",NA,NA,"departure"
59.91687,30.02371,"Cargo","POLA UGLICH",2016-12-19 02:05:04,120,1391791,"Cargo POLA UGLICH",1099.87852572029,121,"arrival"
59.89599,30.22679,"Cargo","PORT ALFRED",2016-12-14 00:33:04,119,1407407,"Cargo PORT ALFRED",NA,NA,"departure"
59.89608,30.22709,"Cargo","PORT ALFRED",2016-12-14 00:31:04,119,1407408,"Cargo PORT ALFRED",19.5179535188601,120,"arrival"
55.72672,21.08698,"Cargo","PRIMA FORTUNA",2016-12-18 00:51:06,119,1411606,"Cargo PRIMA FORTUNA",NA,NA,"departure"
55.71674,21.11054,"Cargo","PRIMA FORTUNA",2016-12-18 00:43:06,480,1411607,"Cargo PRIMA FORTUNA",1848.28737753979,480,"arrival"
57.65028,11.71538,"Cargo","PRIMULA SEAWAYS",2016-12-15 18:17:05,121,1412854,"Cargo PRIMULA SEAWAYS",NA,NA,"departure"
57.63254,11.69205,"Cargo","PRIMULA SEAWAYS",2016-12-15 18:15:07,118,1412855,"Cargo PRIMULA SEAWAYS",2414.94735894293,118,"arrival"
59.917,30.0235,"Cargo","PRINCE OF WAVES",2016-12-19 19:23:04,119,1412865,"Cargo PRINCE OF WAVES",NA,NA,"departure"
59.912,30.04717,"Cargo","PRINCE OF WAVES",2016-12-19 19:21:04,119,1412866,"Cargo PRINCE OF WAVES",1433.35202340263,120,"arrival"
59.92061,30.00629,"Cargo","PRINCESSE OUI",2016-12-18 21:01:04,NA,1414894,"Cargo PRINCESSE OUI",NA,NA,"departure"
59.91763,30.02091,"Cargo","PRINCESSE OUI",2016-12-18 20:59:04,119,1414895,"Cargo PRINCESSE OUI",880.606937388718,120,"arrival"
57.60552,11.60822,"Cargo","PRISCILLA",2016-12-19 19:15:05,NA,1423324,"Cargo PRISCILLA",NA,NA,"departure"
57.60335,11.61722,"Cargo","PRISCILLA",2016-12-19 19:13:05,120,1423325,"Cargo PRISCILLA",588.617697101487,120,"arrival"
57.6536,11.7282,"Cargo","RAMONA",2016-12-17 12:07:06,119,1446336,"Cargo RAMONA",NA,NA,"departure"
57.65665,11.74505,"Cargo","RAMONA",2016-12-17 12:05:05,121,1446337,"Cargo RAMONA",1059.42317549725,121,"arrival"
59.90487,30.08347,"Cargo","REINBEK",2016-12-13 20:17:05,119,1456189,"Cargo REINBEK",NA,NA,"departure"
59.90187,30.09799,"Cargo","REINBEK",2016-12-13 20:15:05,119,1456190,"Cargo REINBEK",876.642437329822,120,"arrival"
55.71651,21.10869,"Cargo","RIG",2016-12-16 13:03:06,120,1470559,"Cargo RIG",NA,NA,"departure"
55.72821,21.06735,"Cargo","RIG",2016-12-16 12:55:06,480,1470560,"Cargo RIG",2900.68026014042,480,"arrival"
54.59549,18.87928,"Cargo","RIX STAR",2016-12-14 19:57:02,120,1472031,"Cargo RIX STAR",NA,NA,"departure"
54.61718,18.89862,"Cargo","RIX STAR",2016-12-14 19:55:01,121,1472032,"Cargo RIX STAR",2717.49760565119,121,"arrival"
54.40318,18.67552,"Cargo","RMS RAHM",2016-12-14 10:09:07,115,1476406,"Cargo RMS RAHM",NA,NA,"departure"
54.44592,18.64606,"Cargo","RMS RAHM",2016-12-14 02:51:02,26279,1476407,"Cargo RMS RAHM",5126.08484243735,26285,"arrival"
54.776,18.98992,"Cargo","ROBIN WIND",2016-12-17 07:43:02,120,1476632,"Cargo ROBIN WIND",NA,NA,"departure"
54.7093,18.99832,"Cargo","ROBIN WIND",2016-12-17 07:17:02,1560,1476633,"Cargo ROBIN WIND",7444.6042905225,1560,"arrival"
54.56457,18.85662,"Cargo","ROJAREK NAREE",2016-12-16 16:37:01,121,1479287,"Cargo ROJAREK NAREE",NA,NA,"departure"
54.55322,18.83907,"Cargo","ROJAREK NAREE",2016-12-16 16:35:01,120,1479288,"Cargo ROJAREK NAREE",1696.98010976924,120,"arrival"
59.89399,30.1374,"Cargo","ROZTOCZE",2016-12-16 08:37:04,120,1498309,"Cargo ROZTOCZE",NA,NA,"departure"
59.89059,30.1536,"Cargo","ROZTOCZE",2016-12-16 08:35:05,118,1498310,"Cargo ROZTOCZE",980.608611222363,119,"arrival"
55.72585,21.09099,"Cargo","RUBYN",2016-12-15 04:25:07,120,1504826,"Cargo RUBYN",NA,NA,"departure"
55.71498,21.11143,"Cargo","RUBYN",2016-12-15 04:17:06,481,1504827,"Cargo RUBYN",1762.55536316885,481,"arrival"
54.69956,20.45387,"Cargo","RUSICH-10",2016-12-13 13:49:02,120,1508804,"Cargo RUSICH-10",NA,NA,"departure"
54.69913,20.45422,"Cargo","RUSICH-10",2016-12-13 13:29:02,1200,1508805,"Cargo RUSICH-10",52.8980160610167,1200,"arrival"
59.91236,30.0471,"Cargo","RUTH",2016-12-20 01:33:04,120,1509117,"Cargo RUTH",NA,NA,"departure"
59.91788,30.0202,"Cargo","RUTH",2016-12-20 01:29:04,239,1509118,"Cargo RUTH",1621.99050296228,240,"arrival"
55.73665,20.8532,"Cargo","SAFFIER",2016-12-15 06:23:06,122,1509125,"Cargo SAFFIER",NA,NA,"departure"
55.73774,20.87151,"Cargo","SAFFIER",2016-12-15 06:21:07,119,1509126,"Cargo SAFFIER",1153.91650410961,119,"arrival"
54.96338,20.31154,"Cargo","SAMUR-3",2016-12-18 15:17:03,120,1513273,"Cargo SAMUR-3",NA,NA,"departure"
54.6333,19.89325,"Cargo","SAMUR-3",2016-12-18 15:15:03,120,1513274,"Cargo SAMUR-3",45504.0996991743,120,"arrival"
55.7276,21.08277,"Cargo","SAN REMO",2016-12-18 18:19:06,240,1513522,"Cargo SAN REMO",NA,NA,"departure"
55.70337,21.11962,"Cargo","SAN REMO",2016-12-18 18:03:05,961,1513523,"Cargo SAN REMO",3551.72896848537,961,"arrival"
54.75603,18.96664,"Cargo","SANDETTIE",2016-12-14 10:09:01,121,1516175,"Cargo SANDETTIE",NA,NA,"departure"
54.40707,18.65818,"Cargo","SANDETTIE",2016-12-14 02:51:02,26279,1516176,"Cargo SANDETTIE",43646.5592404995,26279,"arrival"
54.76309,18.99629,"Cargo","SANTA URSULA",2016-12-18 06:05:02,120,1521056,"Cargo SANTA URSULA",NA,NA,"departure"
54.72224,18.99694,"Cargo","SANTA URSULA",2016-12-18 05:55:02,600,1521057,"Cargo SANTA URSULA",4547.59301898121,600,"arrival"
59.94093,30.25605,"Cargo","SAT AIS",2016-12-15 15:03:04,240,1528409,"Cargo SAT AIS",NA,NA,"departure"
59.94102,30.25615,"Cargo","SAT AIS",2016-12-15 15:01:04,120,1528410,"Cargo SAT AIS",11.4658680632919,120,"arrival"
55.72813,21.0776,"Cargo","SAXUM",2016-12-19 21:19:06,120,1533264,"Cargo SAXUM",NA,NA,"departure"
55.71747,21.10957,"Cargo","SAXUM",2016-12-19 21:09:06,600,1533265,"Cargo SAXUM",2329.29383039952,600,"arrival"
59.909,30.06243,"Cargo","SCA TUNADAL",2016-12-19 18:05:04,119,1543075,"Cargo SCA TUNADAL",NA,NA,"departure"
59.90543,30.08021,"Cargo","SCA TUNADAL",2016-12-19 18:03:04,119,1543076,"Cargo SCA TUNADAL",1069.01936603979,120,"arrival"
57.6165,11.66683,"Cargo","SCHIEBORG",2016-12-16 04:31:06,119,1549524,"Cargo SCHIEBORG",NA,NA,"departure"
57.61017,11.63217,"Cargo","SCHIEBORG",2016-12-16 04:29:05,121,1549525,"Cargo SCHIEBORG",2183.46897404493,121,"arrival"
54.78593,18.92086,"Cargo","SCHUYLER TRADER",2016-12-16 04:05:02,120,1549531,"Cargo SCHUYLER TRADER",NA,NA,"departure"
54.77647,18.9374,"Cargo","SCHUYLER TRADER",2016-12-16 04:03:02,120,1549532,"Cargo SCHUYLER TRADER",1495.48511573722,120,"arrival"
59.90843,30.06649,"Cargo","SEAGARD",2016-12-20 01:57:04,119,1571575,"Cargo SEAGARD",NA,NA,"departure"
59.91272,30.04566,"Cargo","SEAGARD",2016-12-20 01:55:04,119,1571576,"Cargo SEAGARD",1256.7932090467,120,"arrival"
54.59955,18.88429,"Cargo","SEASTAR ENDURANCE",2016-12-15 15:31:01,120,1576231,"Cargo SEASTAR ENDURANCE",NA,NA,"departure"
54.61761,18.89918,"Cargo","SEASTAR ENDURANCE",2016-12-15 15:29:01,120,1576232,"Cargo SEASTAR ENDURANCE",2227.86830234825,120,"arrival"
54.38306,18.66144,"Cargo","SELENE PRAHM",2016-12-15 03:19:02,120,1578246,"Cargo SELENE PRAHM",NA,NA,"departure"
54.37166,18.664,"Cargo","SELENE PRAHM",2016-12-15 03:13:01,361,1578247,"Cargo SELENE PRAHM",1279.85104207568,361,"arrival"
59.88634,30.18579,"Cargo","SERDOLIK",2016-12-16 08:37:04,120,1581745,"Cargo SERDOLIK",NA,NA,"departure"
59.88756,30.19779,"Cargo","SERDOLIK",2016-12-16 08:35:05,118,1581746,"Cargo SERDOLIK",683.820143203962,119,"arrival"
57.60117,11.60028,"Cargo","SEROJA EMPAT",2016-12-20 03:55:04,NA,1583587,"Cargo SEROJA EMPAT",NA,NA,"departure"
57.60493,11.65567,"Cargo","SEROJA EMPAT",2016-12-20 03:39:05,959,1583588,"Cargo SEROJA EMPAT",3330.03339823231,959,"arrival"
59.90506,30.08365,"Cargo","SEVERNAYA ZEMLYA",2016-12-19 03:19:04,119,1597543,"Cargo SEVERNAYA ZEMLYA",NA,NA,"departure"
59.90722,30.07263,"Cargo","SEVERNAYA ZEMLYA",2016-12-19 03:17:04,119,1597544,"Cargo SEVERNAYA ZEMLYA",660.436588210351,120,"arrival"
55.15951,20.15566,"Cargo","SILVER FJORD",2016-12-15 21:25:02,121,1604612,"Cargo SILVER FJORD",NA,NA,"departure"
55.72566,20.80205,"Cargo","SILVER FJORD",2016-12-15 17:43:06,13316,1604613,"Cargo SILVER FJORD",75085.0779540625,13316,"arrival"
59.90694,30.07326,"Cargo","SILVER PEARL",2016-12-15 15:31:05,118,1607030,"Cargo SILVER PEARL",NA,NA,"departure"
59.91338,30.04178,"Cargo","SILVER PEARL",2016-12-15 15:29:04,120,1607031,"Cargo SILVER PEARL",1897.55853612624,121,"arrival"
57.63065,11.69334,"Cargo","SKAGENBANK",2016-12-19 07:49:06,119,1617133,"Cargo SKAGENBANK",NA,NA,"departure"
57.61919,11.68127,"Cargo","SKAGENBANK",2016-12-19 07:47:05,121,1617134,"Cargo SKAGENBANK",1464.61053700023,121,"arrival"
57.61417,11.6575,"Cargo","SLINGEBORG",2016-12-18 22:35:05,120,1624821,"Cargo SLINGEBORG",NA,NA,"departure"
57.62883,11.67933,"Cargo","SLINGEBORG",2016-12-18 22:33:04,121,1624822,"Cargo SLINGEBORG",2087.2803510367,121,"arrival"
54.35765,18.67402,"Cargo","SM-PRC-107",2016-12-14 20:07:02,120,1633653,"Cargo SM-PRC-107",NA,NA,"departure"
54.35757,18.67409,"Cargo","SM-PRC-107",2016-12-14 20:05:02,120,1633654,"Cargo SM-PRC-107",9.99639218032857,120,"arrival"
59.91005,30.05787,"Cargo","SOLONG",2016-12-14 01:47:04,120,1651966,"Cargo SOLONG",NA,NA,"departure"
59.91267,30.04487,"Cargo","SOLONG",2016-12-14 01:45:04,120,1651967,"Cargo SOLONG",781.943370952598,120,"arrival"
57.669,11.69333,"Cargo","SOMERSET",2016-12-14 01:17:06,119,1652350,"Cargo SOMERSET",NA,NA,"departure"
57.67833,11.72617,"Cargo","SOMERSET",2016-12-14 01:15:05,121,1652351,"Cargo SOMERSET",2213.64531255886,121,"arrival"
54.65482,19.8098,"Cargo","SORMOVSKIY-3055",2016-12-14 10:09:02,121,1664122,"Cargo SORMOVSKIY-3055",NA,NA,"departure"
54.67454,18.99002,"Cargo","SORMOVSKIY-3055",2016-12-14 01:07:01,32521,1664123,"Cargo SORMOVSKIY-3055",52825.071028014,32521,"arrival"
59.90585,30.07863,"Cargo","SORMOVSKIY-3056",2016-12-15 08:33:05,118,1668153,"Cargo SORMOVSKIY-3056",NA,NA,"departure"
59.9086,30.0646,"Cargo","SORMOVSKIY-3056",2016-12-15 08:31:04,120,1668154,"Cargo SORMOVSKIY-3056",840.804971925142,121,"arrival"
54.6326,19.90259,"Cargo","SORMOVSKIY-3058",2016-12-15 12:33:03,120,1668177,"Cargo SORMOVSKIY-3058",NA,NA,"departure"
54.6664,20.13557,"Cargo","SORMOVSKIY-3058",2016-12-15 12:27:07,356,1668178,"Cargo SORMOVSKIY-3058",15470.0448974959,356,"arrival"
54.70193,20.4587,"Cargo","SORMOVSKIY-3068",2016-12-15 17:43:03,120,1669582,"Cargo SORMOVSKIY-3068",NA,NA,"departure"
54.65437,20.11265,"Cargo","SORMOVSKIY-3068",2016-12-14 02:47:02,140161,1669583,"Cargo SORMOVSKIY-3068",22892.8716333062,140161,"arrival"
59.90385,30.08839,"Cargo","SORMOVSKIY-53",2016-12-19 16:31:04,128,1670147,"Cargo SORMOVSKIY-53",NA,NA,"departure"
59.9087,30.06449,"Cargo","SORMOVSKIY-53",2016-12-19 16:25:04,359,1670148,"Cargo SORMOVSKIY-53",1439.14605203642,360,"arrival"
54.6857,20.2302,"Cargo","SORMOVSKIY 3064",2016-12-16 21:51:03,960,1670211,"Cargo SORMOVSKIY 3064",NA,NA,"departure"
54.68362,20.32903,"Cargo","SORMOVSKIY 3064",2016-12-16 21:49:04,119,1670212,"Cargo SORMOVSKIY 3064",6364.03604340431,119,"arrival"
55.72241,21.09879,"Cargo","SPANACO FIDELITY",2016-12-19 23:23:13,113,1677212,"Cargo SPANACO FIDELITY",NA,NA,"departure"
55.71562,21.11,"Cargo","SPANACO FIDELITY",2016-12-19 23:19:14,239,1677213,"Cargo SPANACO FIDELITY",1032.16263193324,239,"arrival"
54.69692,18.99504,"Cargo","STAR ISFJORD",2016-12-19 12:01:09,113,1696100,"Cargo STAR ISFJORD",NA,NA,"departure"
54.75713,18.99659,"Cargo","STAR ISFJORD",2016-12-19 11:43:02,1087,1696101,"Cargo STAR ISFJORD",6703.28712494404,1087,"arrival"
54.6338,19.936,"Cargo","STEENBANK",2016-12-16 01:45:02,121,1699774,"Cargo STEENBANK",NA,NA,"departure"
54.63259,19.90238,"Cargo","STEENBANK",2016-12-16 01:37:02,480,1699775,"Cargo STEENBANK",2170.411155649,480,"arrival"
54.75467,18.84233,"Cargo","STENA FORERUNNER",2016-12-18 15:13:01,121,1708883,"Cargo STENA FORERUNNER",NA,NA,"departure"
54.676,18.94767,"Cargo","STENA FORERUNNER",2016-12-18 15:11:02,119,1708884,"Cargo STENA FORERUNNER",11071.3965148314,119,"arrival"
57.71863,11.97329,"Cargo","STOCKHOLM",2016-12-20 05:47:07,118,1716121,"Cargo STOCKHOLM",NA,NA,"departure"
57.71867,11.97328,"Cargo","STOCKHOLM",2016-12-20 05:45:07,118,1716122,"Cargo STOCKHOLM",4.49229504334805,120,"arrival"
59.90365,30.0899,"Cargo","STORTEBEKER",2016-12-17 03:51:04,120,1731400,"Cargo STORTEBEKER",NA,NA,"departure"
59.90795,30.06853,"Cargo","STORTEBEKER",2016-12-17 03:49:04,119,1731401,"Cargo STORTEBEKER",1285.29462339388,120,"arrival"
55.72252,20.90764,"Cargo","STRANDJA",2016-12-19 03:47:06,120,1732288,"Cargo STRANDJA",NA,NA,"departure"
55.72063,20.89128,"Cargo","STRANDJA",2016-12-19 03:45:06,120,1732289,"Cargo STRANDJA",1047.07514539934,120,"arrival"
54.64101,20.02567,"Cargo","STRATEGIC ENCOUNTER",2016-12-16 09:47:02,121,1738057,"Cargo STRATEGIC ENCOUNTER",NA,NA,"departure"
54.63309,19.89434,"Cargo","STRATEGIC ENCOUNTER",2016-12-16 09:45:03,119,1738058,"Cargo STRATEGIC ENCOUNTER",8506.95342528543,119,"arrival"
59.89033,30.22363,"Cargo","SUEDEROOG",2016-12-14 10:09:04,120,1742735,"Cargo SUEDEROOG",NA,NA,"departure"
59.87295,30.20375,"Cargo","SUEDEROOG",2016-12-14 02:29:04,27599,1742736,"Cargo SUEDEROOG",2230.77114703091,27600,"arrival"
54.63951,20.01301,"Cargo","SVYATITEL ALEKSIY",2016-12-15 12:13:02,121,1795751,"Cargo SVYATITEL ALEKSIY",NA,NA,"departure"
54.64499,20.05175,"Cargo","SVYATITEL ALEKSIY",2016-12-15 12:11:03,119,1795752,"Cargo SVYATITEL ALEKSIY",2569.04507919772,119,"arrival"
57.60037,11.79307,"Cargo","SYLVEIA",2016-12-15 13:31:06,119,1804028,"Cargo SYLVEIA",NA,NA,"departure"
57.60033,11.79304,"Cargo","SYLVEIA",2016-12-15 13:29:06,120,1804029,"Cargo SYLVEIA",4.79888285643927,120,"arrival"
54.36997,18.66461,"Cargo","TANAIS",2016-12-16 14:23:01,121,1823745,"Cargo TANAIS",NA,NA,"departure"
54.38043,18.66072,"Cargo","TANAIS",2016-12-16 14:19:01,240,1823746,"Cargo TANAIS",1191.40759761632,240,"arrival"
57.96387,11.71894,"Cargo","TASMAN",2016-12-16 15:51:05,120,1829775,"Cargo TASMAN",NA,NA,"departure"
57.98169,11.74611,"Cargo","TASMAN",2016-12-16 15:43:05,480,1829776,"Cargo TASMAN",2551.05652569267,480,"arrival"
57.61285,11.80496,"Cargo","TENDER1",2016-12-14 10:09:08,118,1846007,"Cargo TENDER1",NA,NA,"departure"
57.64594,11.85902,"Cargo","TENDER1",2016-12-14 02:23:08,27957,1846008,"Cargo TENDER1",4893.83934507296,27960,"arrival"
59.90586,30.07837,"Cargo","TERSCHELLING",2016-12-16 05:57:04,119,1849976,"Cargo TERSCHELLING",NA,NA,"departure"
59.91047,30.05565,"Cargo","TERSCHELLING",2016-12-16 05:55:05,118,1849977,"Cargo TERSCHELLING",1368.00235265887,119,"arrival"
54.52118,18.77537,"Cargo","THEA MARIEKE",2016-12-16 20:29:07,114,1853300,"Cargo THEA MARIEKE",NA,NA,"departure"
54.53445,18.79455,"Cargo","THEA MARIEKE",2016-12-16 20:27:06,116,1853301,"Cargo THEA MARIEKE",1928.03460627701,121,"arrival"
55.72865,21.05033,"Cargo","THOR INTEGRITY",2016-12-19 22:25:06,120,1853402,"Cargo THOR INTEGRITY",NA,NA,"departure"
55.7284,21.0655,"Cargo","THOR INTEGRITY",2016-12-19 22:23:13,113,1853403,"Cargo THOR INTEGRITY",951.348327096487,113,"arrival"
57.65178,11.71843,"Cargo","THULELAND",2016-12-14 13:33:06,119,1857797,"Cargo THULELAND",NA,NA,"departure"
57.65663,11.74896,"Cargo","THULELAND",2016-12-14 13:31:05,121,1857798,"Cargo THULELAND",1896.79739860662,121,"arrival"
54.56498,18.859,"Cargo","THURKUS",2016-12-16 12:57:02,120,1865754,"Cargo THURKUS",NA,NA,"departure"
54.54402,18.82845,"Cargo","THURKUS",2016-12-16 12:55:01,121,1865755,"Cargo THURKUS",3055.12061257243,121,"arrival"
55.71618,20.80508,"Cargo","TIDAN",2016-12-17 04:33:06,120,1866941,"Cargo TIDAN",NA,NA,"departure"
57.60259,11.65599,"Cargo","TIDAN",2016-12-15 10:11:05,152521,1866942,"Cargo TIDAN",597284.135666156,152521,"arrival"
54.56521,18.86041,"Cargo","TINA",2016-12-13 15:51:01,121,1871656,"Cargo TINA",NA,NA,"departure"
54.55447,18.84484,"Cargo","TINA",2016-12-13 15:49:01,120,1871657,"Cargo TINA",1561.87959913145,120,"arrival"
54.78199,18.99543,"Cargo","TOLLUND",2016-12-17 19:17:01,120,1879922,"Cargo TOLLUND",NA,NA,"departure"
54.66673,19.819,"Cargo","TOLLUND",2016-12-17 16:23:02,10439,1879923,"Cargo TOLLUND",54477.9541958991,10439,"arrival"
57.60091,11.68952,"Cargo","TRADER BULK",2016-12-19 03:31:05,120,1894580,"Cargo TRADER BULK",NA,NA,"departure"
57.60003,11.65679,"Cargo","TRADER BULK",2016-12-19 03:19:05,720,1894581,"Cargo TRADER BULK",1954.70889975683,720,"arrival"
59.92068,30.0053,"Cargo","TRANSOSPREY",2016-12-18 14:43:03,120,1900290,"Cargo TRANSOSPREY",NA,NA,"departure"
54.72713,18.99946,"Cargo","TRANSOSPREY",2016-12-16 22:13:02,145801,1900291,"Cargo TRANSOSPREY",876546.780157695,145801,"arrival"
55.68792,21.13279,"Cargo","TRAVEBERG",2016-12-16 15:53:06,120,1902573,"Cargo TRAVEBERG",NA,NA,"departure"
55.6643,21.14626,"Cargo","TRAVEBERG",2016-12-16 15:43:06,600,1902574,"Cargo TRAVEBERG",2761.96535218847,600,"arrival"
59.89521,30.1315,"Cargo","TRICA",2016-12-20 09:31:04,119,1904860,"Cargo TRICA",NA,NA,"departure"
59.88806,30.2011,"Cargo","TRICA",2016-12-20 09:11:04,1200,1904861,"Cargo TRICA",3967.26398472632,1200,"arrival"
55.74756,20.84578,"Cargo","TRUE LOVE",2016-12-15 13:27:06,121,1910877,"Cargo TRUE LOVE",NA,NA,"departure"
55.74601,20.86242,"Cargo","TRUE LOVE",2016-12-15 13:25:07,119,1910878,"Cargo TRUE LOVE",1056.78241383851,119,"arrival"
54.69624,20.43857,"Cargo","UFA",2016-12-15 09:33:04,119,1918825,"Cargo UFA",NA,NA,"departure"
54.64828,20.07527,"Cargo","UFA",2016-12-14 02:47:02,110762,1918826,"Cargo UFA",23987.559512021,110762,"arrival"
55.73171,20.97099,"Cargo","USOLIE",2016-12-14 10:09:06,121,1929278,"Cargo USOLIE",NA,NA,"departure"
55.69459,21.13291,"Cargo","USOLIE",2016-12-14 02:29:06,27600,1929279,"Cargo USOLIE",10962.6494918173,27600,"arrival"
59.89277,30.14283,"Cargo","VALENCIA EXPRESS",2016-12-19 14:27:04,119,1934154,"Cargo VALENCIA EXPRESS",NA,NA,"departure"
59.89643,30.12481,"Cargo","VALENCIA EXPRESS",2016-12-19 14:25:04,119,1934155,"Cargo VALENCIA EXPRESS",1085.54236807391,120,"arrival"
55.71448,21.11101,"Cargo","VANTAGE WAVE",2016-12-14 10:11:07,119,1947134,"Cargo VANTAGE WAVE",NA,NA,"departure"
55.70213,20.87546,"Cargo","VANTAGE WAVE",2016-12-14 02:29:06,27721,1947135,"Cargo VANTAGE WAVE",14837.0729675324,27721,"arrival"
59.91301,30.04302,"Cargo","VARVARA",2016-12-13 11:33:04,119,1947590,"Cargo VARVARA",NA,NA,"departure"
59.91079,30.05415,"Cargo","VARVARA",2016-12-13 11:31:04,119,1947591,"Cargo VARVARA",668.498608507527,120,"arrival"
54.58216,18.88781,"Cargo","VASTANVIK",2016-12-20 09:31:02,119,1947628,"Cargo VASTANVIK",NA,NA,"departure"
54.53333,18.81033,"Cargo","VASTANVIK",2016-12-20 09:11:02,1200,1947629,"Cargo VASTANVIK",7386.62252989555,1200,"arrival"
55.63885,20.80759,"Cargo","VENTURA",2016-12-17 04:03:05,121,1962607,"Cargo VENTURA",NA,NA,"departure"
55.19872,19.96576,"Cargo","VENTURA",2016-12-17 00:05:03,14282,1962608,"Cargo VENTURA",72314.577230593,14282,"arrival"
54.37488,18.65932,"Cargo","VICTORIA",2016-12-16 09:07:02,120,1970179,"Cargo VICTORIA",NA,NA,"departure"
54.37491,18.65989,"Cargo","VICTORIA",2016-12-16 09:05:02,120,1970180,"Cargo VICTORIA",37.11010543773,120,"arrival"
55.71801,21.10651,"Cargo","VICTORIABORG",2016-12-20 10:27:06,120,1972826,"Cargo VICTORIABORG",NA,NA,"departure"
55.66924,21.14524,"Cargo","VICTORIABORG",2016-12-20 10:03:06,1440,1972827,"Cargo VICTORIABORG",5948.06048746484,1440,"arrival"
57.65609,11.7494,"Cargo","VICTORINE",2016-12-19 17:29:05,120,1973884,"Cargo VICTORINE",NA,NA,"departure"
57.64971,11.71424,"Cargo","VICTORINE",2016-12-19 17:27:05,120,1973885,"Cargo VICTORINE",2211.3253448884,120,"arrival"
59.9142,30.03802,"Cargo","VIDFOSS",2016-12-15 10:09:05,118,1973900,"Cargo VIDFOSS",NA,NA,"departure"
59.90969,30.05993,"Cargo","VIDFOSS",2016-12-15 10:07:04,119,1973901,"Cargo VIDFOSS",1321.80638501045,121,"arrival"
59.92171,30.00018,"Cargo","VINGAREN",2016-12-18 14:55:04,120,2000203,"Cargo VINGAREN",NA,NA,"departure"
55.75435,20.80184,"Cargo","VINGAREN",2016-12-13 12:47:06,439677,2000204,"Cargo VINGAREN",714651.213193134,439678,"arrival"
57.60928,11.66926,"Cargo","VIONA",2016-12-20 01:27:05,120,2000487,"Cargo VIONA",NA,NA,"departure"
57.60448,11.66448,"Cargo","VIONA",2016-12-20 01:25:06,119,2000488,"Cargo VIONA",605.618236957879,119,"arrival"
55.73095,21.04599,"Cargo","VITA",2016-12-14 21:39:06,120,2009667,"Cargo VITA",NA,NA,"departure"
55.72998,21.06494,"Cargo","VITA",2016-12-14 21:37:06,120,2009668,"Cargo VITA",1192.731736326,120,"arrival"
55.74082,20.80078,"Cargo","VITIM",2016-12-17 15:39:06,120,2012169,"Cargo VITIM",NA,NA,"departure"
54.45097,18.99401,"Cargo","VITIM",2016-12-15 04:43:02,212164,2012170,"Cargo VITIM",184002.725352148,212164,"arrival"
59.90486,30.08275,"Cargo","VLADIMIR",2016-12-17 06:39:05,118,2017001,"Cargo VLADIMIR",NA,NA,"departure"
59.90915,30.06179,"Cargo","VLADIMIR",2016-12-17 06:37:04,121,2017002,"Cargo VLADIMIR",1263.62379555297,121,"arrival"
57.64769,11.7103,"Cargo","WALTER HAMMANN",2016-12-20 11:11:05,NA,2051749,"Cargo WALTER HAMMANN",NA,NA,"departure"
57.62553,11.68675,"Cargo","WALTER HAMMANN",2016-12-20 10:59:05,720,2051750,"Cargo WALTER HAMMANN",2838.05140073341,720,"arrival"
59.91777,30.01982,"Cargo","WES AMELIE",2016-12-17 10:25:05,119,2051849,"Cargo WES AMELIE",NA,NA,"departure"
59.91357,30.04042,"Cargo","WES AMELIE",2016-12-17 10:23:04,120,2051850,"Cargo WES AMELIE",1240.95704471617,121,"arrival"
54.77571,18.98727,"Cargo","WES JANINE",2016-12-15 16:53:02,119,2052468,"Cargo WES JANINE",NA,NA,"departure"
54.45587,18.99905,"Cargo","WES JANINE",2016-12-15 15:29:01,5041,2052469,"Cargo WES JANINE",35612.522181544,5041,"arrival"
54.69349,18.87828,"Cargo","WIEBKE D",2016-12-15 20:01:01,121,2063238,"Cargo WIEBKE D",NA,NA,"departure"
54.69908,18.86269,"Cargo","WIEBKE D",2016-12-15 19:59:02,119,2063239,"Cargo WIEBKE D",1180.30921572339,119,"arrival"
59.89277,30.2269,"Cargo","WILHELM",2016-12-13 12:09:04,120,2063711,"Cargo WILHELM",NA,NA,"departure"
59.89294,30.22716,"Cargo","WILHELM",2016-12-13 12:07:05,118,2063712,"Cargo WILHELM",23.8518981407892,119,"arrival"
54.65024,18.92236,"Cargo","WILSON BILBAO",2016-12-14 19:57:02,120,2064371,"Cargo WILSON BILBAO",NA,NA,"departure"
54.67572,18.93328,"Cargo","WILSON BILBAO",2016-12-14 19:55:01,121,2064372,"Cargo WILSON BILBAO",2922.26231623795,121,"arrival"
54.68437,18.94872,"Cargo","WILSON HOLLA",2016-12-19 15:03:02,119,2064958,"Cargo WILSON HOLLA",NA,NA,"departure"
54.69785,18.95473,"Cargo","WILSON HOLLA",2016-12-19 15:01:02,120,2064959,"Cargo WILSON HOLLA",1549.60925372096,120,"arrival"
55.69126,21.13543,"Cargo","WILSON SKY",2016-12-14 14:43:06,120,2065208,"Cargo WILSON SKY",NA,NA,"departure"
54.67703,18.9902,"Cargo","WILSON SKY",2016-12-13 22:35:02,58084,2065209,"Cargo WILSON SKY",177008.334000514,58084,"arrival"
54.698,20.45283,"Cargo","WILSON SUND",2016-12-19 03:29:02,120,2065741,"Cargo WILSON SUND",NA,NA,"departure"
54.69806,20.45276,"Cargo","WILSON SUND",2016-12-19 03:27:03,119,2065742,"Cargo WILSON SUND",8.05538183051189,119,"arrival"
54.63191,18.92982,"Cargo","WILSON VOLOS",2016-12-16 22:59:02,119,2066106,"Cargo WILSON VOLOS",NA,NA,"departure"
54.6076,18.91041,"Cargo","WILSON VOLOS",2016-12-16 22:57:02,120,2066107,"Cargo WILSON VOLOS",2981.36278212458,120,"arrival"
55.73263,20.95861,"Cargo","WINTER BAY",2016-12-15 15:07:07,119,2066985,"Cargo WINTER BAY",NA,NA,"departure"
55.73163,20.98156,"Cargo","WINTER BAY",2016-12-15 15:01:06,361,2066986,"Cargo WINTER BAY",1442.80347264318,361,"arrival"
59.91872,30.01553,"Cargo","WMS GRONINGEN",2016-12-19 20:39:04,119,2095537,"Cargo WMS GRONINGEN",NA,NA,"departure"
59.91378,30.03969,"Cargo","WMS GRONINGEN",2016-12-19 20:37:04,119,2095538,"Cargo WMS GRONINGEN",1455.9871150599,120,"arrival"
59.91015,30.05674,"Cargo","WYBELSUM",2016-12-19 15:29:04,119,2101718,"Cargo WYBELSUM",NA,NA,"departure"
59.9141,30.03724,"Cargo","WYBELSUM",2016-12-19 15:27:04,119,2101719,"Cargo WYBELSUM",1173.72404075079,120,"arrival"
59.90249,30.09439,"Cargo","X-PRESS ETNA",2016-12-19 15:13:04,119,2106465,"Cargo X-PRESS ETNA",NA,NA,"departure"
59.90613,30.07705,"Cargo","X-PRESS ETNA",2016-12-19 15:11:12,111,2106466,"Cargo X-PRESS ETNA",1049.32305953471,112,"arrival"
54.69192,18.95926,"Cargo","YAMAL KRECHET",2016-12-20 10:25:02,120,2107088,"Cargo YAMAL KRECHET",NA,NA,"departure"
54.7202,18.97866,"Cargo","YAMAL KRECHET",2016-12-20 10:17:02,480,2107089,"Cargo YAMAL KRECHET",3386.37249340296,480,"arrival"
54.68573,20.22603,"Cargo","ZAMOSKVORECHYE",2016-12-15 15:03:03,240,2125936,"Cargo ZAMOSKVORECHYE",NA,NA,"departure"
54.68554,20.17347,"Cargo","ZAMOSKVORECHYE",2016-12-15 14:51:03,720,2125937,"Cargo ZAMOSKVORECHYE",3382.28063944272,720,"arrival"
54.53359,18.53776,"Cargo","ZBASTAR ENDURANCE",2016-12-19 19:27:07,119,2131529,"Cargo ZBASTAR ENDURANCE",NA,NA,"departure"
54.53364,18.5378,"Cargo","ZBASTAR ENDURANCE",2016-12-19 19:25:06,121,2131530,"Cargo ZBASTAR ENDURANCE",6.13637835181961,121,"arrival"
55.69824,20.86267,"Cargo","ZEALAND BEATRIX",2016-12-17 00:35:06,121,2133767,"Cargo ZEALAND BEATRIX",NA,NA,"departure"
55.65665,20.86282,"Cargo","ZEALAND BEATRIX",2016-12-17 00:33:06,120,2133768,"Cargo ZEALAND BEATRIX",4629.78719542706,120,"arrival"
59.92103,30.00384,"Cargo","ZENIT",2016-12-19 10:51:04,119,2135629,"Cargo ZENIT",NA,NA,"departure"
59.91596,30.02864,"Cargo","ZENIT",2016-12-19 10:49:04,120,2135630,"Cargo ZENIT",1494.43344414142,120,"arrival"
59.87498,30.1947,"Cargo","ZHEN ZHU HAI",2016-12-15 12:21:05,119,2143757,"Cargo ZHEN ZHU HAI",NA,NA,"departure"
59.87513,30.19516,"Cargo","ZHEN ZHU HAI",2016-12-15 12:19:05,119,2143758,"Cargo ZHEN ZHU HAI",30.6482831054138,120,"arrival"
54.79691,18.4361,"Fishing",".WLA-311",2016-12-14 19:35:07,NA,2390,"Fishing .WLA-311",NA,NA,"departure"
54.7962,18.42845,"Fishing",".WLA-311",2016-12-14 19:33:07,120,2391,"Fishing .WLA-311",497.249757143724,120,"arrival"
55.7599,20.80213,"Fishing","100",2016-12-19 01:21:06,120,5809,"Fishing 100",NA,NA,"departure"
55.78035,20.80773,"Fishing","100",2016-12-14 20:59:07,361319,5810,"Fishing 100",2303.3331896194,361319,"arrival"
55.70719,21.11483,"Fishing","169",2016-12-17 18:15:07,119,8263,"Fishing 169",NA,NA,"departure"
55.72095,21.10062,"Fishing","169",2016-12-17 18:07:06,481,8264,"Fishing 169",1772.09572703346,481,"arrival"
55.75827,20.80489,"Fishing","652",2016-12-18 07:51:06,119,19227,"Fishing 652",NA,NA,"departure"
55.77225,20.80305,"Fishing","652",2016-12-15 08:31:06,256800,19228,"Fishing 652",1560.50689265251,256800,"arrival"
55.7479,20.80184,"Fishing","694",2016-12-17 23:35:06,120,19590,"Fishing 694",NA,NA,"departure"
55.77372,20.80183,"Fishing","694",2016-12-14 22:45:09,262197,19591,"Fishing 694",2874.26932052523,262197,"arrival"
55.73271,21.0479,"Fishing","756",2016-12-15 00:09:07,119,19859,"Fishing 756",NA,NA,"departure"
55.70136,21.11934,"Fishing","756",2016-12-15 00:01:15,472,19860,"Fishing 756",5678.53829639428,472,"arrival"
54.60652,18.88237,"Fishing","AGNESE",2016-12-16 06:59:02,120,58705,"Fishing AGNESE",NA,NA,"departure"
54.61623,18.89098,"Fishing","AGNESE",2016-12-16 06:57:02,120,58706,"Fishing AGNESE",1215.0993545494,120,"arrival"
57.65135,11.83575,"Fishing","AHLMA",2016-12-20 07:59:07,118,63687,"Fishing AHLMA",NA,NA,"departure"
57.65745,11.82032,"Fishing","AHLMA",2016-12-20 07:57:07,117,63688,"Fishing AHLMA",1142.65101921236,120,"arrival"
59.86845,30.21742,"Fishing","ALBATROSS",2016-12-20 04:01:11,112,83227,"Fishing ALBATROSS",NA,NA,"departure"
59.86836,30.21739,"Fishing","ALBATROSS",2016-12-20 03:59:03,127,83228,"Fishing ALBATROSS",10.158043838787,128,"arrival"
57.65069,11.83671,"Fishing","ALVSBORG",2016-12-19 07:13:10,115,109535,"Fishing ALVSBORG",NA,NA,"departure"
57.64545,11.858,"Fishing","ALVSBORG",2016-12-19 06:27:05,2761,109536,"Fishing ALVSBORG",1395.9413695585,2765,"arrival"
54.79977,18.4426,"Fishing","ANCILLA WLA-68",2016-12-18 03:49:07,52199,123983,"Fishing ANCILLA WLA-68",NA,NA,"departure"
54.79672,18.4304,"Fishing","ANCILLA WLA-68",2016-12-18 03:47:06,121,123984,"Fishing ANCILLA WLA-68",853.338425481478,121,"arrival"
55.70748,20.80876,"Fishing","ATLANT",2016-12-16 22:45:06,121,194720,"Fishing ATLANT",NA,NA,"departure"
55.77094,20.80019,"Fishing","ATLANT",2016-12-15 00:07:06,167880,194721,"Fishing ATLANT",7084.72089650275,167880,"arrival"
54.63615,19.96907,"Fishing","ATLANTIDA",2016-12-14 23:33:03,119,207161,"Fishing ATLANTIDA",NA,NA,"departure"
54.63342,19.8941,"Fishing","ATLANTIDA",2016-12-14 23:31:02,121,207162,"Fishing ATLANTIDA",4839.88129107305,121,"arrival"
54.52085,18.55329,"Fishing","BALTICA",2016-12-19 14:27:06,119,239380,"Fishing BALTICA",NA,NA,"departure"
54.70739,18.99247,"Fishing","BALTICA",2016-12-16 02:19:01,121,240424,"Fishing BALTICA",35109.8688342824,302885,"arrival"
54.42768,18.99997,"Fishing","BALTICA",2016-12-15 08:59:02,62399,240425,"Fishing BALTICA",31140.9365592895,62399,"departure"
57.67314,11.62985,"Fishing","BISCAYA GG34",2016-12-20 08:25:05,128,281875,"Fishing BISCAYA GG34",NA,NA,"arrival"
57.66939,11.62202,"Fishing","BISCAYA GG34",2016-12-20 08:23:05,120,281876,"Fishing BISCAYA GG34",625.73003022638,120,"departure"
54.51999,18.77276,"Fishing","BOOTES",2016-12-19 00:01:38,84,332319,"Fishing BOOTES",NA,NA,"arrival"
54.53127,18.79001,"Fishing","BOOTES",2016-12-18 23:59:06,147,332320,"Fishing BOOTES",1678.87867122733,152,"departure"
54.37277,18.66246,"Fishing","BORIS SYROMYATNIKOV",2016-12-18 08:23:02,120,334867,"Fishing BORIS SYROMYATNIKOV",NA,NA,"arrival"
54.37305,18.66233,"Fishing","BORIS SYROMYATNIKOV",2016-12-18 08:21:02,120,334868,"Fishing BORIS SYROMYATNIKOV",32.2892579434402,120,"departure"
54.70523,20.48743,"Fishing","BRATYA STOYANOVY",2016-12-16 02:43:03,119,339607,"Fishing BRATYA STOYANOVY",NA,NA,"arrival"
54.7051,20.48718,"Fishing","BRATYA STOYANOVY",2016-12-16 01:51:03,3120,339608,"Fishing BRATYA STOYANOVY",21.63286032673,3120,"departure"
54.79712,18.42093,"Fishing","CHRISTINA MICHELLE",2016-12-13 23:15:07,119,402770,"Fishing CHRISTINA MICHELLE",NA,NA,"arrival"
54.79703,18.43237,"Fishing","CHRISTINA MICHELLE",2016-12-13 23:11:07,240,402771,"Fishing CHRISTINA MICHELLE",734.20514089996,240,"departure"
57.603,11.62517,"Fishing","CLIPPERTON",2016-12-14 16:27:06,120,404348,"Fishing CLIPPERTON",NA,NA,"arrival"
57.605,11.61267,"Fishing","CLIPPERTON",2016-12-14 16:25:05,121,404349,"Fishing CLIPPERTON",778.051754588769,121,"departure"
57.6004,11.7906,"Fishing","CLIPPFJORD",2016-12-19 07:33:06,119,404956,"Fishing CLIPPFJORD",NA,NA,"arrival"
57.60124,11.79403,"Fishing","CLIPPFJORD",2016-12-19 07:31:05,121,404957,"Fishing CLIPPFJORD",224.944500546456,121,"departure"
57.67466,11.66486,"Fishing","DANAFJORD",2016-12-17 07:39:06,119,430190,"Fishing DANAFJORD",NA,NA,"arrival"
57.67349,11.66452,"Fishing","DANAFJORD",2016-12-17 07:33:05,361,430191,"Fishing DANAFJORD",131.806922047215,361,"departure"
54.79982,18.44383,"Fishing","DAR-10",2016-12-13 22:53:07,120,432735,"Fishing DAR-10",NA,NA,"arrival"
54.79816,18.81418,"Fishing","DAR-10",2016-12-13 16:47:02,21965,432736,"Fishing DAR-10",23765.9597052207,21965,"departure"
55.87436,20.80899,"Fishing","DARIUS",2016-12-16 06:25:08,119,437978,"Fishing DARIUS",NA,NA,"arrival"
55.62143,20.80016,"Fishing","DARIUS",2016-12-15 10:43:07,70921,437979,"Fishing DARIUS",28161.4735335019,70921,"departure"
54.79985,18.44069,"Fishing","DZI-92 ATILIUS",2016-12-20 04:11:13,NA,484227,"Fishing DZI-92 ATILIUS",NA,NA,"arrival"
54.79614,18.42568,"Fishing","DZI-92 ATILIUS",2016-12-20 04:09:07,126,484228,"Fishing DZI-92 ATILIUS",1048.01811796166,126,"departure"
54.79833,18.477,"Fishing","DZI 85",2016-12-18 19:19:06,121,484636,"Fishing DZI 85",NA,NA,"arrival"
54.79667,18.42983,"Fishing","DZI 85",2016-12-18 03:41:07,56279,484637,"Fishing DZI 85",3032.63412374827,56279,"departure"
57.77259,11.62051,"Fishing","ENSKAR",2016-12-20 09:31:05,119,524695,"Fishing ENSKAR",NA,NA,"arrival"
57.72721,11.66791,"Fishing","ENSKAR",2016-12-20 09:11:05,1200,524696,"Fishing ENSKAR",5783.36635935129,1200,"departure"
57.74771,11.61491,"Fishing","EROS AV HONO",2016-12-14 16:47:06,119,531661,"Fishing EROS AV HONO",NA,NA,"arrival"
57.68261,11.64932,"Fishing","EROS AV HONO",2016-12-14 00:07:06,60000,531662,"Fishing EROS AV HONO",7530.17801066266,60000,"departure"
54.79632,18.41446,"Fishing","FENIKSS",2016-12-19 16:51:06,2521,546297,"Fishing FENIKSS",NA,NA,"arrival"
54.78333,18.4,"Fishing","FENIKSS",2016-12-19 15:33:07,4679,546298,"Fishing FENIKSS",1718.25817983135,4679,"departure"
54.6411,18.87042,"Fishing","FRANEK ZUBRZYCKI",2016-12-15 15:21:02,120,581638,"Fishing FRANEK ZUBRZYCKI",NA,NA,"arrival"
54.63113,18.87422,"Fishing","FRANEK ZUBRZYCKI",2016-12-15 15:19:01,121,581639,"Fishing FRANEK ZUBRZYCKI",1136.53814122652,121,"departure"
57.60175,11.60523,"Fishing","GANTHI",2016-12-19 16:17:05,119,614672,"Fishing GANTHI",NA,NA,"arrival"
57.60079,11.79128,"Fishing","GANTHI",2016-12-19 05:27:05,39000,614673,"Fishing GANTHI",11097.6275394549,39000,"departure"
54.79977,18.83827,"Fishing","GDA-18",2016-12-15 13:23:02,120,622719,"Fishing GDA-18",NA,NA,"arrival"
54.79884,18.76773,"Fishing","GDA-18",2016-12-15 08:49:07,16435,622720,"Fishing GDA-18",4527.68282568564,16435,"departure"
54.41359,18.99597,"Fishing","GDA-20",2016-12-16 19:01:01,121,624762,"Fishing GDA-20",NA,NA,"arrival"
54.67441,18.99993,"Fishing","GDA-20",2016-12-15 07:29:02,127919,624763,"Fishing GDA-20",29035.4756168895,127919,"departure"
57.90454,11.60112,"Fishing","GG 38 TOVEN",2016-12-17 09:31:04,121,628664,"Fishing GG 38 TOVEN",NA,NA,"arrival"
57.9156,11.60165,"Fishing","GG 38 TOVEN",2016-12-17 08:11:05,4799,628665,"Fishing GG 38 TOVEN",1231.59246891169,4799,"departure"
57.66545,11.61814,"Fishing","GG 391 ELISABETH",2016-12-15 06:31:05,120,628695,"Fishing GG 391 ELISABETH",NA,NA,"arrival"
57.67155,11.62779,"Fishing","GG 391 ELISABETH",2016-12-15 06:29:05,120,628696,"Fishing GG 391 ELISABETH",889.48211504707,120,"departure"
57.64779,11.82975,"Fishing","GG 668 SILVER",2016-12-16 15:51:08,117,631225,"Fishing GG 668 SILVER",NA,NA,"arrival"
57.62911,11.82257,"Fishing","GG 668 SILVER",2016-12-16 15:43:07,478,631226,"Fishing GG 668 SILVER",2123.00112922783,481,"departure"
57.63206,11.82187,"Fishing","GG 690 VINGASAND",2016-12-19 10:37:07,118,633370,"Fishing GG 690 VINGASAND",NA,NA,"arrival"
57.62533,11.82135,"Fishing","GG 690 VINGASAND",2016-12-19 10:35:08,116,633371,"Fishing GG 690 VINGASAND",749.820954823311,119,"departure"
57.71507,11.60402,"Fishing","GG102 MAUDAN",2016-12-14 15:23:05,120,638756,"Fishing GG102 MAUDAN",NA,NA,"arrival"
57.69856,11.64054,"Fishing","GG102 MAUDAN",2016-12-14 02:29:05,46440,638757,"Fishing GG102 MAUDAN",2845.19715785046,46440,"departure"
57.64334,11.83613,"Fishing","GG1206 DANO",2016-12-17 22:19:08,117,640888,"Fishing GG1206 DANO",NA,NA,"arrival"
57.63395,11.82328,"Fishing","GG1206 DANO",2016-12-17 22:17:07,118,640889,"Fishing GG1206 DANO",1295.71171339276,121,"departure"
57.77292,11.61625,"Fishing","GG292 MARTINA",2016-12-15 23:49:05,120,647003,"Fishing GG292 MARTINA",NA,NA,"arrival"
57.77287,11.61638,"Fishing","GG292 MARTINA",2016-12-15 23:47:06,119,647004,"Fishing GG292 MARTINA",9.51510608180154,119,"departure"
57.748,11.60948,"Fishing","GG32 TRISTAN",2016-12-19 18:05:05,120,648717,"Fishing GG32 TRISTAN",NA,NA,"arrival"
57.7686,11.60609,"Fishing","GG32 TRISTAN",2016-12-19 02:57:06,54479,648718,"Fishing GG32 TRISTAN",2302.00204135595,54479,"departure"
57.73392,11.67183,"Fishing","GG43 ANNA",2016-12-18 11:33:05,120,649086,"Fishing GG43 ANNA",NA,NA,"arrival"
57.73304,11.67202,"Fishing","GG43 ANNA",2016-12-13 23:51:06,387719,649087,"Fishing GG43 ANNA",98.6097600998439,387719,"departure"
57.6271,11.76748,"Fishing","GG75 MANILL",2016-12-15 13:57:06,120,650281,"Fishing GG75 MANILL",NA,NA,"arrival"
57.62975,11.78354,"Fishing","GG75 MANILL",2016-12-15 13:55:05,121,650282,"Fishing GG75 MANILL",1001.62357148294,121,"departure"
57.92948,11.60151,"Fishing","GG976 SVANFORS",2016-12-19 17:51:04,121,650897,"Fishing GG976 SVANFORS",NA,NA,"arrival"
57.93022,11.60012,"Fishing","GG976 SVANFORS",2016-12-19 17:49:05,119,650898,"Fishing GG976 SVANFORS",116.342927140584,119,"departure"
57.71513,11.95762,"Fishing","GINNETON",2016-12-15 21:59:05,121,661767,"Fishing GINNETON",NA,NA,"arrival"
57.71497,11.95756,"Fishing","GINNETON",2016-12-15 21:57:08,117,661768,"Fishing GINNETON",18.1648928817207,117,"departure"
57.60073,11.66888,"Fishing","GLITTFORS",2016-12-19 15:23:05,120,671906,"Fishing GLITTFORS",NA,NA,"arrival"
57.74045,11.60468,"Fishing","GLITTFORS",2016-12-19 04:25:06,39479,671907,"Fishing GLITTFORS",16016.2585622274,39479,"departure"
57.70826,11.6679,"Fishing","GOTTSKAR",2016-12-19 21:43:05,128,692285,"Fishing GOTTSKAR",NA,NA,"arrival"
57.71786,11.66545,"Fishing","GOTTSKAR",2016-12-19 21:41:05,120,692286,"Fishing GOTTSKAR",1078.55128934993,120,"departure"
54.79534,18.70248,"Fishing","HEL-102",2016-12-16 20:23:07,115,738508,"Fishing HEL-102",NA,NA,"arrival"
54.79677,18.76717,"Fishing","HEL-102",2016-12-14 23:57:08,159954,738509,"Fishing HEL-102",4154.49363972726,159959,"departure"
54.68947,18.77327,"Fishing","HEL-103",2016-12-16 05:59:07,120,739133,"Fishing HEL-103",NA,NA,"arrival"
54.79896,18.58353,"Fishing","HEL-103",2016-12-15 20:07:07,35515,739134,"Fishing HEL-103",17239.5591961837,35520,"departure"
54.79767,18.85563,"Fishing","HEL-111",2016-12-19 03:45:01,121,740451,"Fishing HEL-111",NA,NA,"arrival"
54.79856,18.73015,"Fishing","HEL-111",2016-12-18 06:13:08,77513,740452,"Fishing HEL-111",8052.80362626917,77513,"departure"
54.52021,18.54748,"Fishing","HEL-125",2016-12-16 02:31:07,120,744773,"Fishing HEL-125",NA,NA,"arrival"
54.52187,18.55046,"Fishing","HEL-125",2016-12-16 02:29:07,120,744774,"Fishing HEL-125",266.868119317815,120,"departure"
54.54118,18.98796,"Fishing","HEL-150",2016-12-19 16:07:02,120,745810,"Fishing HEL-150",NA,NA,"arrival"
54.43809,18.99997,"Fishing","HEL-150",2016-12-19 10:55:02,18720,745811,"Fishing HEL-150",11502.1710222594,18720,"departure"
54.79939,18.81003,"Fishing","HEL-152",2016-12-19 05:51:02,119,747946,"Fishing HEL-152",NA,NA,"arrival"
54.79922,18.70689,"Fishing","HEL-152",2016-12-18 10:03:07,71275,747947,"Fishing HEL-152",6618.44345112368,71275,"departure"
54.79663,18.42929,"Fishing","HEL-30",2016-12-16 16:39:07,120,749989,"Fishing HEL-30",NA,NA,"arrival"
54.79971,18.80706,"Fishing","HEL-30",2016-12-15 07:33:02,119165,749990,"Fishing HEL-30",24244.2954726689,119165,"departure"
54.62632,18.99098,"Fishing","HEL-4",2016-12-18 14:15:01,121,750317,"Fishing HEL-4",NA,NA,"arrival"
54.74201,18.99223,"Fishing","HEL-4",2016-12-16 14:31:01,171840,750318,"Fishing HEL-4",12878.8031021116,171840,"departure"
54.73862,18.97788,"Fishing","HEL-6",2016-12-17 06:09:01,121,751855,"Fishing HEL-6",NA,NA,"arrival"
54.74726,18.98651,"Fishing","HEL-6",2016-12-17 06:07:02,119,751856,"Fishing HEL-6",1110.22009787056,119,"departure"
54.79933,18.65145,"Fishing","HEL 112",2016-12-16 12:09:08,114,752403,"Fishing HEL 112",NA,NA,"arrival"
54.79729,18.80079,"Fishing","HEL 112",2016-12-15 00:05:01,129841,752404,"Fishing HEL 112",9585.96096300218,129847,"departure"
54.79923,18.95095,"Fishing","HEL 23",2016-12-17 04:31:02,119,754022,"Fishing HEL 23",NA,NA,"arrival"
54.79855,18.87031,"Fishing","HEL 23",2016-12-15 12:49:02,142920,754023,"Fishing HEL 23",5175.21522969529,142920,"departure"
54.59192,18.9911,"Fishing","HEL 95",2016-12-15 15:43:02,120,755055,"Fishing HEL 95",NA,NA,"arrival"
54.63875,18.99859,"Fishing","HEL 95",2016-12-15 10:41:02,18120,755056,"Fishing HEL 95",5235.40197182653,18120,"departure"
57.69016,11.89695,"Fishing","INGUN",2016-12-15 06:17:09,116,796511,"Fishing INGUN",NA,NA,"arrival"
57.69784,11.915,"Fishing","INGUN",2016-12-15 06:15:08,118,796512,"Fishing INGUN",1372.62123507516,121,"departure"
54.56837,18.99592,"Fishing","JAS-12",2016-12-15 15:11:02,120,811445,"Fishing JAS-12",NA,NA,"arrival"
54.63068,18.99728,"Fishing","JAS-12",2016-12-15 10:27:02,17040,811446,"Fishing JAS-12",6936.87188328414,17040,"departure"
54.64897,18.9963,"Fishing","JAS-64",2016-12-17 15:37:02,119,813525,"Fishing JAS-64",NA,NA,"arrival"
